{
  "source": "PB.csv",
  "total_records": 720,
  "data": [
    {
      "name": "コメリ栃尾店",
      "address": "新潟県長岡市新栄町2-4-23",
      "lat": 37.489344,
      "lon": 138.997791
    },
    {
      "name": "カメラのキタムラ長岡/希望が丘店店舗前",
      "address": "新潟県長岡市希望が丘4丁目1239-2",
      "lat": 37.44878,
      "lon": 138.81357
    },
    {
      "name": "カメラのキタムラ新潟/とやの店駐車場内",
      "address": "新潟県新潟市中央区堀之内42-1",
      "lat": 37.905273,
      "lon": 139.049518
    },
    {
      "name": "カメラのキタムラ新発田/舟入店店舗前",
      "address": "新潟県新発田市舟入町3-8-25",
      "lat": 37.9589,
      "lon": 139.305166
    },
    {
      "name": "コモタウンPIO21",
      "address": "新潟県新発田市舟入町3-6-20",
      "lat": 37.956968,
      "lon": 139.304106
    },
    {
      "name": "イチコスーパー高田西店",
      "address": "新潟県上越市大字飯747",
      "lat": 37.122172,
      "lon": 138.231731
    },
    {
      "name": "ドラッグトップス河渡店",
      "address": "新潟県新潟市東区河渡庚135-1",
      "lat": 37.931398,
      "lon": 139.10088
    },
    {
      "name": "ドラッグトップス新通店",
      "address": "新潟県新潟市西区新通1057番地",
      "lat": 37.860257,
      "lon": 138.949521
    },
    {
      "name": "ドラッグトップス村松店",
      "address": "新潟県五泉市村松1360",
      "lat": 37.699318,
      "lon": 139.174459
    },
    {
      "name": "県央サティ2号機",
      "address": "新潟県燕市井土巻3-65",
      "lat": 37.650688,
      "lon": 138.936309
    },
    {
      "name": "ホームセンタームサシ佐和田店",
      "address": "新潟県佐渡市長木字腰前783",
      "lat": 37.992761,
      "lon": 138.330736
    },
    {
      "name": "新発田市役所EFR",
      "address": "新潟県新発田市中央町4-10-4",
      "lat": 37.950865,
      "lon": 139.3279
    },
    {
      "name": "イオン新潟東店(1号機)",
      "address": "新潟県新潟市東区大形本町3-1-2",
      "lat": 37.924776,
      "lon": 139.114647
    },
    {
      "name": "イオン村上東店",
      "address": "新潟県村上市大字仲間町200イオン村上東",
      "lat": 38.221281,
      "lon": 139.4922
    },
    {
      "name": "ベイシア小千谷",
      "address": "新潟県小千谷市三仏生字上林3489-2",
      "lat": 37.331966,
      "lon": 138.811554
    },
    {
      "name": "イチコスーパー新井店",
      "address": "新潟県妙高市大字石塚1-505",
      "lat": 37.031666,
      "lon": 138.250245
    },
    {
      "name": "ドラッグトップス粟山店",
      "address": "新潟県新潟市東区粟山4-33-2",
      "lat": 37.899279,
      "lon": 139.102675
    },
    {
      "name": "イオン六日町店",
      "address": "新潟県南魚沼市余川3100",
      "lat": 37.081244,
      "lon": 138.878533
    },
    {
      "name": "イオン新潟東店(2号機)",
      "address": "新潟県新潟市東区大形本町3-1-2",
      "lat": 37.924776,
      "lon": 139.114647
    },
    {
      "name": "カメラのキタムラ上越/イオン上越店(1号機)",
      "address": "新潟県上越市富岡3457イオン上越店内1階",
      "lat": 37.152914,
      "lon": 138.258481
    },
    {
      "name": "カメラのキタムラ三条ピア店",
      "address": "新潟県三条市須頃3-13",
      "lat": 37.648769,
      "lon": 138.941279
    },
    {
      "name": "ドラッグトップス葛塚",
      "address": "新潟県新潟市北区太田字法花鳥屋5804-1",
      "lat": 37.920801,
      "lon": 139.222308
    },
    {
      "name": "新潟大学生協",
      "address": "新潟県新潟市西区五十嵐2の町8050",
      "lat": 37.867369,
      "lon": 138.939906
    },
    {
      "name": "ヨドバシカメラマルチメディア新潟駅前店",
      "address": "新潟県新潟市中央区弁天1-2-6ヨドバシ新潟ビル",
      "lat": 37.913018,
      "lon": 139.059502
    },
    {
      "name": "マックススーパーセンター五泉店",
      "address": "新潟県五泉市太田新田925",
      "lat": 37.743526,
      "lon": 139.18927
    },
    {
      "name": "アテーナ新津店",
      "address": "新潟県新潟市秋葉区新津4570-3",
      "lat": 37.791896,
      "lon": 139.109605
    },
    {
      "name": "ブックコスモス",
      "address": "新潟県上越市北城町3-5-8",
      "lat": 37.118386,
      "lon": 138.253588
    },
    {
      "name": "コメリ北長岡店",
      "address": "新潟県長岡市豊1-608",
      "lat": 37.458071,
      "lon": 138.869135
    },
    {
      "name": "カインズスーパーセンター新潟豊栄店",
      "address": "新潟県新潟市北区かぶとやま2-1-62",
      "lat": 37.928933,
      "lon": 139.218687
    },
    {
      "name": "スーパー原信四日町店",
      "address": "新潟県三条市南四日町4-4-7よっかまちSC内",
      "lat": 37.618578,
      "lon": 138.955009
    },
    {
      "name": "コメリ三条生活館",
      "address": "新潟県三条市大字下須頃字歩710",
      "lat": 37.635913,
      "lon": 138.944977
    },
    {
      "name": "ファミリーマート新潟内野山手店",
      "address": "新潟県新潟市西区内野山手1-11-27",
      "lat": 37.861488,
      "lon": 138.936283
    },
    {
      "name": "カメラのキタムラ上越/直江津店",
      "address": "新潟県上越市新光町3-2-14",
      "lat": 37.157521,
      "lon": 138.238202
    },
    {
      "name": "カメラのキタムラ新潟/上木戸店",
      "address": "新潟県新潟市東区上木戸1-4-16",
      "lat": 37.924732,
      "lon": 139.103587
    },
    {
      "name": "イオンモール新潟南店",
      "address": "新潟県新潟市江南区下早通柳田1-1-1イオンモール新潟南1F",
      "lat": 37.876448,
      "lon": 139.081275
    },
    {
      "name": "上越モール",
      "address": "新潟県上越市とよば239-1",
      "lat": 37.102587,
      "lon": 138.276901
    },
    {
      "name": "戸田書店長岡店",
      "address": "新潟県長岡市堺町浦田33-1",
      "lat": 37.462469,
      "lon": 138.810486
    },
    {
      "name": "カメラのキタムラ新津店",
      "address": "新潟県新潟市秋葉区程島1926-8",
      "lat": 37.786148,
      "lon": 139.113842
    },
    {
      "name": "カメラのキタムラ柏崎/柏崎店店舗前",
      "address": "新潟県柏崎市北半田1-1-25",
      "lat": 37.364771,
      "lon": 138.571826
    },
    {
      "name": "イオン下門前店",
      "address": "新潟県上越市下門前1871",
      "lat": 37.158456,
      "lon": 138.252745
    },
    {
      "name": "イオン上越寺店",
      "address": "新潟県上越市寺158-1",
      "lat": 37.128207,
      "lon": 138.263107
    },
    {
      "name": "ドラッグトップス空港通り店",
      "address": "新潟県新潟市東区浜谷町2丁目4ー18",
      "lat": 37.946659,
      "lon": 139.096413
    },
    {
      "name": "NEXT21",
      "address": "新潟県新潟市中央区西堀通六番町866",
      "lat": 37.922588,
      "lon": 139.04313
    },
    {
      "name": "カメラのキタムラ十日町/イオン十日町店",
      "address": "新潟県十日町市字川端丑784イオン十日町店内",
      "lat": 37.138427,
      "lon": 138.745602
    },
    {
      "name": "安田ショッピングセンターウインディ",
      "address": "新潟県阿賀野市保田中道3095",
      "lat": 37.784428,
      "lon": 139.261285
    },
    {
      "name": "イチコスーパー直江津西",
      "address": "新潟県上越市五智1丁目14-35",
      "lat": 37.16854,
      "lon": 138.236068
    },
    {
      "name": "新潟サティ",
      "address": "新潟県新潟市西区小新南2-1-10",
      "lat": 37.869885,
      "lon": 138.994929
    },
    {
      "name": "デッキー401",
      "address": "新潟県新潟市中央区上近江4-12-20",
      "lat": 37.898538,
      "lon": 139.029625
    },
    {
      "name": "札幌市営地下鉄南郷7丁目駅",
      "address": "北海道札幌市白石区南郷通7丁目南",
      "lat": 43.039383,
      "lon": 141.41017
    },
    {
      "name": "札幌市営地下鉄南北線幌平橋駅",
      "address": "北海道札幌市中央区南15条西4丁目",
      "lat": 43.040254,
      "lon": 141.355068
    },
    {
      "name": "札幌市営地下鉄豊水すすきの駅",
      "address": "北海道札幌市中央区南6条西2丁目",
      "lat": 43.053587,
      "lon": 141.3563
    },
    {
      "name": "コープさっぽろ星置店",
      "address": "北海道札幌市手稲区星置1条3-2-2",
      "lat": 43.133315,
      "lon": 141.210067
    },
    {
      "name": "文教堂西野3条店",
      "address": "北海道札幌市西区西野3条4-8",
      "lat": 43.074938,
      "lon": 141.277866
    },
    {
      "name": "札幌市営地下鉄新道東駅",
      "address": "北海道札幌市東区北34条東16丁目",
      "lat": 43.105197,
      "lon": 141.369862
    },
    {
      "name": "札幌市営地下鉄東区役所前駅",
      "address": "北海道札幌市東区北13条東8丁目",
      "lat": 43.078743,
      "lon": 141.364826
    },
    {
      "name": "イエローグローブ芦別店",
      "address": "北海道芦別市本町43-1",
      "lat": 43.514207,
      "lon": 142.202262
    },
    {
      "name": "フクハラるる店",
      "address": "北海道広尾郡広尾町丸山通北2丁目14ショッピングセンター",
      "lat": 42.29438,
      "lon": 143.308399
    },
    {
      "name": "ヨドバシカメラマルチメディア札幌店",
      "address": "北海道札幌市北区北六条西5丁目1-22",
      "lat": 43.068341,
      "lon": 141.347801
    },
    {
      "name": "カメラのキタムラ札幌・イオンモール札幌平岡店",
      "address": "北海道札幌市清田区平岡3条5-3-1イオンモール札幌平岡1F",
      "lat": 42.996527,
      "lon": 141.450618
    },
    {
      "name": "札幌市役所地下1F売店",
      "address": "北海道札幌市中央区北一条西2丁目市役所本庁舎B1F",
      "lat": 43.073034,
      "lon": 141.347658
    },
    {
      "name": "カメラのキタムラ函館白鳥店",
      "address": "北海道函館市田家町16-34",
      "lat": 41.796674,
      "lon": 140.743251
    },
    {
      "name": "カメラのキタムラ旭川・神楽店",
      "address": "北海道旭川市神楽4条5丁目1-26",
      "lat": 43.759976,
      "lon": 142.347294
    },
    {
      "name": "ファミリーマート千歳末広2丁目",
      "address": "北海道千歳市末広2丁目1-15",
      "lat": 42.828333,
      "lon": 141.654601
    },
    {
      "name": "北星学園生協",
      "address": "北海道札幌市厚別区大谷地西2-3-1",
      "lat": 43.024841,
      "lon": 141.44743
    },
    {
      "name": "カメラのキタムラ札幌/イオン苫小牧店B",
      "address": "北海道苫小牧市柳町3丁目1-20",
      "lat": 42.656405,
      "lon": 141.642478
    },
    {
      "name": "札幌学院大学生活協同組合",
      "address": "北海道江別市分京台11",
      "lat": 43.069994,
      "lon": 141.502156
    },
    {
      "name": "イオンモール札幌発寒",
      "address": "北海道札幌市西区発寒8条12-1-1",
      "lat": 43.096062,
      "lon": 141.277576
    },
    {
      "name": "北海道大学生活協同組合生協会館店",
      "address": "北海道札幌市北区北8条西市7",
      "lat": 43.066591,
      "lon": 141.334509
    },
    {
      "name": "イオンモール旭川西",
      "address": "北海道旭川市緑町23丁目2161-3",
      "lat": 43.793996,
      "lon": 142.325864
    },
    {
      "name": "フクハラ公立大前店",
      "address": "北海道釧路市文苑4-1-6",
      "lat": 43.018936,
      "lon": 144.393007
    },
    {
      "name": "カメラのキタムラ札幌/イオン苫小牧店A",
      "address": "北海道苫小牧市柳町3丁目1-20",
      "lat": 42.656405,
      "lon": 141.642478
    },
    {
      "name": "ビッグハウス野幌店",
      "address": "北海道江別市東野幌本町35-2",
      "lat": 43.088128,
      "lon": 141.533495
    },
    {
      "name": "室蘭工業大学生活協同組合",
      "address": "北海道室蘭市水元町36-8",
      "lat": 42.378117,
      "lon": 141.035189
    },
    {
      "name": "カメラのキタムラ江別・弥生店",
      "address": "北海道江別市弥生町1丁目1番8",
      "lat": 43.106166,
      "lon": 141.544114
    },
    {
      "name": "株式会社北見メッセ",
      "address": "北海道北見市中央三輪5丁目423番地5",
      "lat": 43.796787,
      "lon": 143.856317
    },
    {
      "name": "スーパーアークス港町店",
      "address": "北海道函館市港町1-2-1",
      "lat": 41.801123,
      "lon": 140.720635
    },
    {
      "name": "カメラのキタムラ札幌/イオンモール札幌平岡店",
      "address": "北海道札幌市清田区平岡3条5-276-1イオンモール札幌平岡内",
      "lat": 42.995887,
      "lon": 141.456372
    },
    {
      "name": "カメラのキタムラ釧路店A",
      "address": "北海道釧路郡釧路町睦1-1-1",
      "lat": 0.0,
      "lon": 0.0
    },
    {
      "name": "ビッグハウス岩見沢店",
      "address": "北海道岩見沢市大和一条9-1-1",
      "lat": 43.189079,
      "lon": 141.734642
    },
    {
      "name": "ジョイフルエーケー屯田店",
      "address": "北海道札幌市北区屯田8条5-5-1",
      "lat": 43.140551,
      "lon": 141.336707
    },
    {
      "name": "コープさっぽろいしかり店",
      "address": "北海道石狩市花川北3条3丁目9-2",
      "lat": 43.161884,
      "lon": 141.312657
    },
    {
      "name": "カメラのキタムラ羊ケ丘通り店",
      "address": "北海道札幌市豊平区西岡4条3-6-31",
      "lat": 43.016632,
      "lon": 141.390932
    },
    {
      "name": "登別中央ショッピングセンターアーニス",
      "address": "北海道登別市中央町4-11",
      "lat": 42.411281,
      "lon": 141.104785
    },
    {
      "name": "札幌市営地下鉄北34条駅",
      "address": "北海道札幌市北区北33条西4丁目",
      "lat": 43.100219,
      "lon": 141.341237
    },
    {
      "name": "コメリパワー苫小牧東",
      "address": "北海道苫小牧市新開町2丁目2番3号",
      "lat": 42.663043,
      "lon": 141.654874
    },
    {
      "name": "コメリパワー帯広南本館",
      "address": "北海道帯広市清流東2丁目12番地6",
      "lat": 42.875339,
      "lon": 143.195194
    },
    {
      "name": "札幌市営地下鉄月寒中央駅",
      "address": "北海道札幌市豊平区月寒中央通7丁目",
      "lat": 43.030756,
      "lon": 141.395852
    },
    {
      "name": "コメリパワー砂川",
      "address": "北海道砂川市空知太東一条2丁目1番1号",
      "lat": 43.528199,
      "lon": 141.919126
    },
    {
      "name": "松岡ビル",
      "address": "北海道札幌市北区太平12条1-1-1",
      "lat": 43.139598,
      "lon": 141.349781
    },
    {
      "name": "札幌市営地下鉄南北線南平岸駅",
      "address": "北海道札幌市豊平区平岸4条13丁目",
      "lat": 43.026652,
      "lon": 141.373693
    },
    {
      "name": "サンドラッグ北41条",
      "address": "北海道札幌市東区北41条東9丁目3番1号",
      "lat": 43.111455,
      "lon": 141.358746
    },
    {
      "name": "フードD生鮮市場沼ノ端",
      "address": "北海道苫小牧市沼ノ端230-132",
      "lat": 42.676691,
      "lon": 141.701108
    },
    {
      "name": "シーナシーナ琴似店2FJR通路側",
      "address": "北海道札幌市西区琴似2条1丁目4-1",
      "lat": 43.080308,
      "lon": 141.306212
    },
    {
      "name": "アリオ札幌1Fエントツ広場側入口付近",
      "address": "北海道札幌市東区北7条東9-2-20",
      "lat": 43.071167,
      "lon": 141.371037
    },
    {
      "name": "カメラのキタムラ北見・本町店",
      "address": "北海道北見市本町3丁目2-10",
      "lat": 43.800211,
      "lon": 143.885122
    },
    {
      "name": "酪農学園生活協同組合",
      "address": "北海道江別市文京台緑町569-47",
      "lat": 43.073356,
      "lon": 141.508347
    },
    {
      "name": "フードD生鮮市場美しが丘店",
      "address": "北海道札幌市清田区美しが丘四条6丁目1-1",
      "lat": 42.97889,
      "lon": 141.455901
    },
    {
      "name": "サンドラッグ発寒6条",
      "address": "北海道札幌市西区発寒6条9丁目17-40",
      "lat": 43.088443,
      "lon": 141.280477
    },
    {
      "name": "キタムラ七戸/イオン七戸SC",
      "address": "青森県上北郡七戸町荒熊内67-990",
      "lat": 40.717776,
      "lon": 141.154414
    },
    {
      "name": "ジョイム緑町店",
      "address": "青森県三沢市緑町3-33",
      "lat": 40.685006,
      "lon": 141.377347
    },
    {
      "name": "スーパーセンタートライアル八戸",
      "address": "青森県八戸市大字糖塚字狐塚18-1",
      "lat": 40.510853,
      "lon": 141.49786
    },
    {
      "name": "マックスバリュ幸畑",
      "address": "青森県青森市幸畑3-1-8",
      "lat": 40.781305,
      "lon": 140.783702
    },
    {
      "name": "コメリ青森階上",
      "address": "青森県三戸郡階上町大字道仏字天当平1番地123",
      "lat": 40.451344,
      "lon": 141.619407
    },
    {
      "name": "よこまちストア旭ヶ丘店",
      "address": "青森県八戸市新井田字小久保尻16-4",
      "lat": 40.498762,
      "lon": 141.541956
    },
    {
      "name": "八戸市役所本館1階市民ホール",
      "address": "青森県八戸市内丸1-1-1",
      "lat": 40.513964,
      "lon": 141.48892
    },
    {
      "name": "イオン青森",
      "address": "青森県青森市緑3-9-2",
      "lat": 40.806401,
      "lon": 140.752776
    },
    {
      "name": "イオン藤崎",
      "address": "青森県南津軽郡藤崎町大字西豊田1-7-1",
      "lat": 40.656768,
      "lon": 140.502144
    },
    {
      "name": "イオン八戸田向",
      "address": "青森県八戸市大字田向字毘沙門平27-1",
      "lat": 40.505629,
      "lon": 141.496524
    },
    {
      "name": "ファミリーマート八戸根城二丁目",
      "address": "青森県八戸市根城2-26-10",
      "lat": 40.501917,
      "lon": 141.475666
    },
    {
      "name": "マックスバリュ十和田南店",
      "address": "青森県十和田市大字相坂字小林21",
      "lat": 40.599207,
      "lon": 141.227805
    },
    {
      "name": "かんぶん階上店",
      "address": "青森県三戸郡階上町大字道仏字耳ケ吠43-335",
      "lat": 40.45332,
      "lon": 141.619861
    },
    {
      "name": "かんぶん三戸店",
      "address": "青森県三戸郡南部町大字大向字後構20-3",
      "lat": 40.40228,
      "lon": 141.26669
    },
    {
      "name": "かんぶん野辺地店",
      "address": "青森県上北郡野辺地町字上川原3-1",
      "lat": 40.855558,
      "lon": 141.127643
    },
    {
      "name": "よこまちストア一番町店",
      "address": "青森県八戸市大字尻内町字八百刈27",
      "lat": 40.508629,
      "lon": 141.438012
    },
    {
      "name": "アンエイム東京堂",
      "address": "青森県むつ市中央2-7-1",
      "lat": 41.286562,
      "lon": 141.185183
    },
    {
      "name": "ハッピードラッグ青森鰺ヶ沢店",
      "address": "青森県西津軽郡鰺ヶ沢町大字舞戸町字下冨田58-1",
      "lat": 40.761512,
      "lon": 140.22333
    },
    {
      "name": "ハッピードラッグ十和田西金崎",
      "address": "青森県十和田市西二十三番町60-19",
      "lat": 40.604311,
      "lon": 141.194576
    },
    {
      "name": "ハッピードラッグむつとまぶモール店",
      "address": "青森県むつ市金曲1丁目2-4",
      "lat": 41.28598,
      "lon": 141.210719
    },
    {
      "name": "イオンモール下田A",
      "address": "青森県上北郡おいらせ町中野平40-1イオン下田SC1階",
      "lat": 40.601426,
      "lon": 141.418891
    },
    {
      "name": "イオンモールつがる柏A",
      "address": "青森県つがる市柏稲盛幾世41イオン柏SC2階",
      "lat": 40.80263,
      "lon": 140.416625
    },
    {
      "name": "イオンタウン浪岡",
      "address": "青森県青森市浪岡大字浪岡字松嶋15イオンタウン浪岡",
      "lat": 40.722608,
      "lon": 140.595714
    },
    {
      "name": "マックスバリュ板柳店",
      "address": "青森県北津軽郡板柳町大字灰沼字東267-1",
      "lat": 40.706124,
      "lon": 140.4554
    },
    {
      "name": "イオンモール下田B",
      "address": "青森県上北郡おいらせ町中野平40-1イオン下田SC1階",
      "lat": 40.601426,
      "lon": 141.418891
    },
    {
      "name": "サンデー弘前店",
      "address": "青森県弘前市大字八幡町3-1-5",
      "lat": 40.615218,
      "lon": 140.483637
    },
    {
      "name": "サンデー弘前安原店",
      "address": "青森県弘前市大字大清水字上広野38-4",
      "lat": 40.578312,
      "lon": 140.496131
    },
    {
      "name": "成田本店つくだ店",
      "address": "青森県青森市中佃3-7-11",
      "lat": 40.817109,
      "lon": 140.786091
    },
    {
      "name": "マックスバリュ平内店",
      "address": "青森県東津軽郡平内町大字小湊字外ノ沢40番地",
      "lat": 40.920967,
      "lon": 140.946864
    },
    {
      "name": "ファミリーマート青森新田一丁目店",
      "address": "青森県青森市新田一丁目150-1",
      "lat": 40.841364,
      "lon": 140.717215
    },
    {
      "name": "イオンタウン青森浜田",
      "address": "青森県青森市浜田玉川196-10",
      "lat": 40.798337,
      "lon": 140.758651
    },
    {
      "name": "サンロード青森",
      "address": "青森県青森市緑3-9-2",
      "lat": 40.806401,
      "lon": 140.752776
    },
    {
      "name": "ファミリーマート黒石追子野木一丁目",
      "address": "青森県黒石市追子野木1-182-1",
      "lat": 40.633971,
      "lon": 140.597316
    },
    {
      "name": "イオンタウン弘前樋の口",
      "address": "青森県弘前市大字樋の口2-9-6",
      "lat": 40.60244,
      "lon": 140.44401
    },
    {
      "name": "ファミリーマート八戸青葉二丁目店",
      "address": "青森県八戸市青葉2-21-6",
      "lat": 40.514908,
      "lon": 141.514949
    },
    {
      "name": "ELMエルムの街ショッピングセンター",
      "address": "青森県五所川原市大字唐笠柳字藤巻517-1",
      "lat": 40.800385,
      "lon": 140.453245
    },
    {
      "name": "ファミリーマート青森青大前店",
      "address": "青森県青森市大字大矢沢字里見125番地1",
      "lat": 40.784504,
      "lon": 140.778982
    },
    {
      "name": "青森市役所(駅前庁舎)",
      "address": "青森県青森市新町1-3-7",
      "lat": 40.827105,
      "lon": 140.735681
    },
    {
      "name": "カメラのキタムラ弘前/青山店",
      "address": "青森県弘前市大字青山4-19-3",
      "lat": 40.626919,
      "lon": 140.482551
    },
    {
      "name": "カメラのキタムラ弘前/高田店",
      "address": "青森県弘前市大字高田3-1-3",
      "lat": 40.597182,
      "lon": 140.50516
    },
    {
      "name": "イオンモールつがる柏B",
      "address": "青森県つがる市柏稲盛幾世41イオン柏SC2階",
      "lat": 40.80263,
      "lon": 140.416625
    },
    {
      "name": "カメラのキタムラ八戸/城下店",
      "address": "青森県八戸市城下4-20-27",
      "lat": 40.518624,
      "lon": 141.496539
    },
    {
      "name": "カメラのキタムラ青森/青葉店",
      "address": "青森県青森市青葉2-3-2",
      "lat": 40.805319,
      "lon": 140.749057
    },
    {
      "name": "セプ・ドール沼館店",
      "address": "青森県八戸市沼館1-7-122",
      "lat": 40.524922,
      "lon": 141.493254
    },
    {
      "name": "ホームセンターかんぶんおいらせ",
      "address": "青森県上北郡おいらせ町牛込平91-1",
      "lat": 40.602333,
      "lon": 141.438546
    },
    {
      "name": "イオンモールつがる柏",
      "address": "青森県つがる市柏稲盛幾代41",
      "lat": 40.80223,
      "lon": 140.416916
    },
    {
      "name": "ツルハドラッグ弘前外崎",
      "address": "青森県弘前市大字外崎3丁目5-1",
      "lat": 40.596412,
      "lon": 140.498598
    },
    {
      "name": "ツルハドラッグ浪岡",
      "address": "青森県青森市浪岡大字杉沢井ノ下126-2",
      "lat": 40.720514,
      "lon": 140.589399
    },
    {
      "name": "ツルハドラッグ青森富田",
      "address": "青森県青森市富田3丁目9-1",
      "lat": 40.83256,
      "lon": 140.711732
    },
    {
      "name": "マックスバリュ新おおわに店",
      "address": "青森県南津軽郡大鰐町大字大鰐字前田27",
      "lat": 40.523355,
      "lon": 140.56704
    },
    {
      "name": "かんぶん岩手町店",
      "address": "岩手県岩手郡岩手町大字五日市第11地割字上苗代沢123-1",
      "lat": 39.582272,
      "lon": 141.213332
    },
    {
      "name": "かんぶん二戸店",
      "address": "岩手県二戸市堀野字長地75-4",
      "lat": 40.292859,
      "lon": 141.298175
    },
    {
      "name": "コインランドリーあらいぐま",
      "address": "岩手県宮古市小山田2-4-17",
      "lat": 39.633248,
      "lon": 141.94107
    },
    {
      "name": "カメラのキタムラ水沢・佐倉河店",
      "address": "岩手県奥州市水沢区佐倉河字川原田110-1",
      "lat": 39.144962,
      "lon": 141.149318
    },
    {
      "name": "いわて生協マリンコープDORA",
      "address": "岩手県宮古市小山田2-2-1",
      "lat": 39.632331,
      "lon": 141.942174
    },
    {
      "name": "ジョイス三関店",
      "address": "岩手県一関市三関字神田162-1",
      "lat": 38.924862,
      "lon": 141.145803
    },
    {
      "name": "イオンタウン/カメラのキタムラNET紫波店",
      "address": "岩手県紫波郡紫波町北日詰字東ノ坊28",
      "lat": 39.536458,
      "lon": 141.16282
    },
    {
      "name": "ファミリーマート盛岡西青山二丁目店",
      "address": "岩手県盛岡市西青山2-1-13",
      "lat": 39.726313,
      "lon": 141.110545
    },
    {
      "name": "イオン江釣子",
      "address": "岩手県北上市鬼柳19-68",
      "lat": 39.293221,
      "lon": 141.092748
    },
    {
      "name": "SSMサンエー",
      "address": "岩手県奥州市江刺区西大通り7-2",
      "lat": 39.196111,
      "lon": 141.1725
    },
    {
      "name": "ファミリーマート高田竹駒十日市場",
      "address": "岩手県陸前高田市竹駒町字十日市場243-1",
      "lat": 39.033375,
      "lon": 141.61229
    },
    {
      "name": "スーパーマーケットマルイチみたけ店",
      "address": "岩手県盛岡市みたけ2-12-22",
      "lat": 39.745365,
      "lon": 141.125038
    },
    {
      "name": "マックスバリュ石鳥谷",
      "address": "岩手県花巻市石鳥谷町八幡第3地割9-1",
      "lat": 39.48252,
      "lon": 141.147111
    },
    {
      "name": "イオン前沢店",
      "address": "岩手県奥州市前沢区向田2-85",
      "lat": 39.050094,
      "lon": 141.130763
    },
    {
      "name": "ファミリーマート北上大堤公園",
      "address": "岩手県北上市相去町葛西5-16",
      "lat": 39.248953,
      "lon": 141.076913
    },
    {
      "name": "ファミリーマート盛岡厨川四丁目",
      "address": "岩手県盛岡市厨川4-9-1",
      "lat": 39.750087,
      "lon": 141.129547
    },
    {
      "name": "イオンスーパーセンター盛岡渋民店",
      "address": "岩手県盛岡市玉山区渋民字鶴飼20-1",
      "lat": 39.850369,
      "lon": 141.172803
    },
    {
      "name": "GAONE",
      "address": "岩手県盛岡市緑が丘4-9-35",
      "lat": 39.737568,
      "lon": 141.143687
    },
    {
      "name": "ファミリーマート盛岡館向",
      "address": "岩手県盛岡市館向町3-9",
      "lat": 39.717018,
      "lon": 141.131125
    },
    {
      "name": "マイヤ滝沢店",
      "address": "岩手県滝沢市鵜飼狐洞316",
      "lat": 39.739731,
      "lon": 141.084813
    },
    {
      "name": "サンデー大船渡店",
      "address": "岩手県大船渡市赤崎町字諏訪前38-7",
      "lat": 39.086028,
      "lon": 141.7184
    },
    {
      "name": "ビックハウス上盛岡店",
      "address": "岩手県盛岡市北山1-9-20",
      "lat": 39.712262,
      "lon": 141.149556
    },
    {
      "name": "スーパーマーケットマルイチ中ノ橋通店",
      "address": "岩手県盛岡市中ノ橋通2-7-38",
      "lat": 39.697939,
      "lon": 141.161317
    },
    {
      "name": "マックスバリュ盛岡駅前北通",
      "address": "岩手県盛岡市盛岡駅前北通11-1",
      "lat": 39.706194,
      "lon": 141.133102
    },
    {
      "name": "ファミリーマート金ケ崎三ケ尻店",
      "address": "岩手県胆沢郡金ケ崎町三ケ尻字荒巻138-1",
      "lat": 39.217497,
      "lon": 141.101443
    },
    {
      "name": "マックスバリュ北上店",
      "address": "岩手県北上市里分4地割77",
      "lat": 39.294155,
      "lon": 141.134926
    },
    {
      "name": "イオンスーパーセンター一関店",
      "address": "岩手県一関市狐禅寺字石ノ瀬11-1",
      "lat": 38.939781,
      "lon": 141.153693
    },
    {
      "name": "マックスバリュ花巻店",
      "address": "岩手県花巻市中根子字堂前55マックスバリュ花巻店内",
      "lat": 39.381627,
      "lon": 141.094053
    },
    {
      "name": "いわて生協ベルフ青山店",
      "address": "岩手県盛岡市青山4-17-2",
      "lat": 39.729298,
      "lon": 141.114596
    },
    {
      "name": "サンリアショッピングセンター",
      "address": "岩手県大船渡市盛町字町10-11",
      "lat": 39.087764,
      "lon": 141.709313
    },
    {
      "name": "イオン一関",
      "address": "岩手県一関市山目字泥田89-1",
      "lat": 38.936797,
      "lon": 141.11281
    },
    {
      "name": "イオン盛岡南",
      "address": "岩手県盛岡市本宮七丁目1番1号",
      "lat": 39.683167,
      "lon": 141.127479
    },
    {
      "name": "ツルハドラッグ花巻石鳥谷",
      "address": "岩手県花巻市石鳥谷町八幡第4地割53番2",
      "lat": 39.484785,
      "lon": 141.148571
    },
    {
      "name": "サンデー釜石店",
      "address": "岩手県釜石市上中島町3-1-1",
      "lat": 39.266764,
      "lon": 141.852311
    },
    {
      "name": "ツルハドラッグ水沢大鐘",
      "address": "岩手県奥州市水沢区南大鐘1丁目85",
      "lat": 39.136863,
      "lon": 141.141292
    },
    {
      "name": "ツルハドラッグ水沢台町",
      "address": "岩手県奥州市水沢区台町6-6",
      "lat": 39.127068,
      "lon": 141.146629
    },
    {
      "name": "ファミリーマートフレンドボックス花泉店",
      "address": "岩手県一関市花泉町涌津字二ツ檀7-1",
      "lat": 38.825966,
      "lon": 141.183685
    },
    {
      "name": "ツルハドラッグ滝沢室小路",
      "address": "岩手県滝沢市室小路672-18",
      "lat": 39.735354,
      "lon": 141.100624
    },
    {
      "name": "ツルハドラッグ大船渡笹崎",
      "address": "岩手県大船渡市大船渡町字笹崎132-1",
      "lat": 39.057834,
      "lon": 141.719582
    },
    {
      "name": "かんぶん一戸店",
      "address": "岩手県二戸郡一戸町一戸字砂森123-1",
      "lat": 40.210675,
      "lon": 141.304921
    },
    {
      "name": "ツルハドラッグ盛岡津志田西",
      "address": "岩手県盛岡市津志田西2丁目2番15号",
      "lat": 39.665358,
      "lon": 141.15075
    },
    {
      "name": "ツルハドラッグ高田アップルロード",
      "address": "岩手県陸前高田市米崎町字西風道241-1",
      "lat": 39.010599,
      "lon": 141.674219
    },
    {
      "name": "ツルハドラッグ盛岡大館町",
      "address": "岩手県盛岡市大館町18番3号",
      "lat": 39.713879,
      "lon": 141.110704
    },
    {
      "name": "ツルハドラッグ盛岡南仙北",
      "address": "岩手県盛岡市南仙北1丁目21番39号",
      "lat": 39.678775,
      "lon": 141.153259
    },
    {
      "name": "ファミリーマート盛岡アイーナ店",
      "address": "岩手県盛岡市盛岡駅西通1-7-1",
      "lat": 39.702187,
      "lon": 141.133167
    },
    {
      "name": "盛岡南ショッピングセンターサンサ",
      "address": "岩手県盛岡市津志田西2-15-5",
      "lat": 39.663971,
      "lon": 141.148244
    },
    {
      "name": "カメラのキタムラ北上店",
      "address": "岩手県北上市柳原1-144-1",
      "lat": 39.292507,
      "lon": 141.11215
    },
    {
      "name": "ウエルシア水沢大畑",
      "address": "岩手県奥州市水沢大畑小路31",
      "lat": 39.1398,
      "lon": 141.137572
    },
    {
      "name": "マイヤ仙北店",
      "address": "岩手県盛岡市西仙北1-38-30",
      "lat": 39.685669,
      "lon": 141.147253
    },
    {
      "name": "ウエルシア花巻南川原",
      "address": "岩手県花巻市南川原町126-1",
      "lat": 39.383475,
      "lon": 141.116873
    },
    {
      "name": "カメラのキタムラ多賀城/イオン多賀城店",
      "address": "宮城県多賀城市町前4-1-1イオン多賀城店内",
      "lat": 38.282245,
      "lon": 141.005274
    },
    {
      "name": "ファミリーマート元吉バイパス",
      "address": "宮城県気仙沼市本吉町津谷長根106-1",
      "lat": 38.791868,
      "lon": 141.517571
    },
    {
      "name": "ファミリーマート六丁目左近掘店",
      "address": "宮城県仙台市若林区六丁目字左近堀16-6",
      "lat": 38.24645,
      "lon": 140.946119
    },
    {
      "name": "ファミリーマート宮千代三丁目",
      "address": "宮城県仙台市宮城野区宮千代3-9-22",
      "lat": 38.255133,
      "lon": 140.917759
    },
    {
      "name": "宮脇書店気仙沼",
      "address": "宮城県気仙沼市仲町2丁目1-30-1",
      "lat": 38.897713,
      "lon": 141.578415
    },
    {
      "name": "丸江岩ヶ崎店",
      "address": "宮城県栗原市栗駒岩ケ崎神南47",
      "lat": 38.831174,
      "lon": 140.999916
    },
    {
      "name": "ファミリーマート仙台国見ケ丘店",
      "address": "宮城県仙台市青葉区国見ケ丘5-1-10",
      "lat": 38.283291,
      "lon": 140.831842
    },
    {
      "name": "イトーチェーンマルコ店",
      "address": "宮城県柴田郡柴田町槻木下町1-4-38",
      "lat": 38.081572,
      "lon": 140.814417
    },
    {
      "name": "ファミリーマート小野田神山西店",
      "address": "宮城県加美郡加美町字神山西19-3",
      "lat": 38.571792,
      "lon": 140.787284
    },
    {
      "name": "ファミリーマート西多賀一丁目店",
      "address": "宮城県仙台市太白区西多賀1-15-25",
      "lat": 38.223195,
      "lon": 140.859398
    },
    {
      "name": "ヨークベニマル登米中田",
      "address": "宮城県登米市中田町石森字野元12",
      "lat": 38.704545,
      "lon": 141.224223
    },
    {
      "name": "ヨークベニマル仙台西の平店",
      "address": "宮城県仙台市太白区西の平2-35-1",
      "lat": 38.23118,
      "lon": 140.853831
    },
    {
      "name": "イオンタウン金成",
      "address": "宮城県栗原市金成小迫荒崎22",
      "lat": 38.804088,
      "lon": 141.06781
    },
    {
      "name": "みやぎ生活協同組合台原店",
      "address": "宮城県仙台市青葉区台原5-1-2",
      "lat": 38.282234,
      "lon": 140.877238
    },
    {
      "name": "ファミリーマート上杉一丁目店",
      "address": "宮城県仙台市青葉区上杉1-7-30",
      "lat": 38.270924,
      "lon": 140.870666
    },
    {
      "name": "ファミリーマート免許センター前",
      "address": "宮城県仙台市泉区市名坂字竹内105-8",
      "lat": 38.312671,
      "lon": 140.910093
    },
    {
      "name": "ファミリーマート仙台大和町店",
      "address": "宮城県仙台市若林区大和町3-3-1",
      "lat": 38.248183,
      "lon": 140.92019
    },
    {
      "name": "ファミリーマート仙台花京院店",
      "address": "宮城県仙台市青葉区花京院1-5-10",
      "lat": 38.264583,
      "lon": 140.882965
    },
    {
      "name": "ファミリーマート宮町四丁目店",
      "address": "宮城県仙台市青葉区宮町4-6-21",
      "lat": 38.276114,
      "lon": 140.884394
    },
    {
      "name": "仙台市泉区役所",
      "address": "宮城県仙台市泉区泉中央2-1-1",
      "lat": 38.326398,
      "lon": 140.88064
    },
    {
      "name": "tekuteながまち",
      "address": "宮城県仙台市太白区長町5-1-30",
      "lat": 38.227762,
      "lon": 140.885661
    },
    {
      "name": "カメラのキタムラ仙台/イオン仙台幸町店A",
      "address": "宮城県仙台市宮城野区幸町5-10-1",
      "lat": 38.273561,
      "lon": 140.90279
    },
    {
      "name": "カメラのキタムラ仙台/イオン仙台幸町店B",
      "address": "宮城県仙台市宮城野区幸町5-10-1",
      "lat": 38.273561,
      "lon": 140.90279
    },
    {
      "name": "イオン仙台中山店B",
      "address": "宮城県仙台市泉区南中山1-35-40イオン仙台中山店ライフ館",
      "lat": 38.298299,
      "lon": 140.827031
    },
    {
      "name": "カメラのキタムラ富谷/イオンモール富谷店B",
      "address": "宮城県富谷市大清水1-33-1",
      "lat": 38.364722,
      "lon": 140.875124
    },
    {
      "name": "カメラのキタムラ大崎/古川店",
      "address": "宮城県大崎市古川駅南3-14-4",
      "lat": 38.566222,
      "lon": 140.970477
    },
    {
      "name": "カメラのキタムラ仙台/イオンスーパーセンター鈎取店A",
      "address": "宮城県仙台市太白区鈎取本町1-21-1",
      "lat": 38.219614,
      "lon": 140.837674
    },
    {
      "name": "カメラのキタムラ仙台/イオンスーパーセンター鈎取店B",
      "address": "宮城県仙台市太白区鈎取本町1-21-1",
      "lat": 38.219614,
      "lon": 140.837674
    },
    {
      "name": "ファミリーマート二の森店",
      "address": "宮城県仙台市宮城野区幸町1-22-3",
      "lat": 38.277827,
      "lon": 140.89724
    },
    {
      "name": "カメラのキタムラ仙台/泉店",
      "address": "宮城県仙台市泉区高玉町4-9",
      "lat": 38.317567,
      "lon": 140.895487
    },
    {
      "name": "イオン仙台中山店A",
      "address": "宮城県仙台市泉区南中山1-35-40イオン仙台中山店本館",
      "lat": 38.297871,
      "lon": 140.827208
    },
    {
      "name": "カメラのキタムラ石巻/蛇田店",
      "address": "宮城県石巻市恵み野1-3-9",
      "lat": 38.447169,
      "lon": 141.273789
    },
    {
      "name": "ファミリーマート卸町三丁目店",
      "address": "宮城県仙台市若林区卸町3-7-6",
      "lat": 38.259361,
      "lon": 140.921298
    },
    {
      "name": "仙台市若林区役所",
      "address": "宮城県仙台市若林区保春院前丁3-1",
      "lat": 38.244153,
      "lon": 140.900797
    },
    {
      "name": "JR仙台駅地下東口改札内",
      "address": "宮城県仙台市青葉区中央1-10-10",
      "lat": 38.261046,
      "lon": 140.87973
    },
    {
      "name": "ファミリーマート伊藤榴岡五丁目店",
      "address": "宮城県仙台市宮城野区榴岡5-2-6",
      "lat": 38.258646,
      "lon": 140.89363
    },
    {
      "name": "ファミリーマート富谷成田八丁目店",
      "address": "宮城県富谷市成田8-2-2",
      "lat": 38.360422,
      "lon": 140.892609
    },
    {
      "name": "ファミリーマート白石蔵王駅前店",
      "address": "宮城県白石市旭町1-3-9",
      "lat": 37.996156,
      "lon": 140.632185
    },
    {
      "name": "ファミリーマート佐沼中江五丁目店",
      "address": "宮城県登米市迫町佐沼字中江5-9-7",
      "lat": 38.690328,
      "lon": 141.181729
    },
    {
      "name": "ファミリーマート築館宮野店",
      "address": "宮城県栗原市築館字下宮野中田138-1",
      "lat": 38.749379,
      "lon": 141.014252
    },
    {
      "name": "ファミリーマート利府青山店",
      "address": "宮城県宮城郡利府町青山2-1-1",
      "lat": 38.338105,
      "lon": 140.966164
    },
    {
      "name": "マックスバリュ鹿島台店",
      "address": "宮城県大崎市鹿島台木間塚字小谷地259-1",
      "lat": 38.477301,
      "lon": 141.105444
    },
    {
      "name": "ヤマザワ古川バイパス",
      "address": "宮城県大崎市古川竹ノ内249-1",
      "lat": 38.575387,
      "lon": 140.94428
    },
    {
      "name": "ヤマザワ古川北",
      "address": "宮城県大崎市古川江合寿町3-6-2",
      "lat": 38.58723,
      "lon": 140.968796
    },
    {
      "name": "ヨークベニマル利府店",
      "address": "宮城県宮城郡利府町神谷沢字新宮ケ崎14-1",
      "lat": 38.315136,
      "lon": 140.96054
    },
    {
      "name": "ファミリーマート多賀城育英高校前店",
      "address": "宮城県多賀城市高橋字浜居場52-1",
      "lat": 38.28822,
      "lon": 140.978994
    },
    {
      "name": "ファミリーマート八木山香澄町",
      "address": "宮城県仙台市太白区八木山香澄町5-3ミヤギケンセンダイシ",
      "lat": 38.244498,
      "lon": 140.860195
    },
    {
      "name": "JR石巻駅",
      "address": "宮城県石巻市鋳銭場9-1",
      "lat": 38.435135,
      "lon": 141.304377
    },
    {
      "name": "ヨークベニマル湊鹿妻店",
      "address": "宮城県石巻市伊原津2-10-50",
      "lat": 38.41926,
      "lon": 141.338534
    },
    {
      "name": "イオンモール石巻",
      "address": "宮城県石巻市茜平4-104",
      "lat": 38.447509,
      "lon": 141.266022
    },
    {
      "name": "イオン能代店",
      "address": "秋田県能代市柳町12-33イオン能代店内",
      "lat": 40.198548,
      "lon": 140.053306
    },
    {
      "name": "マックスバリュ/カメラのキタムラNET大館西店",
      "address": "秋田県大館市根下戸新町18-83マックスバリュ大館西",
      "lat": 40.274005,
      "lon": 140.528684
    },
    {
      "name": "イオンモール秋田A",
      "address": "秋田県秋田市御所野地蔵田1-1イオン秋田御所野",
      "lat": 39.663163,
      "lon": 140.160929
    },
    {
      "name": "イオン中仙(2号機)",
      "address": "秋田県大仙市北長野字袴田188",
      "lat": 39.551307,
      "lon": 140.551439
    },
    {
      "name": "イオンスタイル本荘店",
      "address": "秋田県由利本荘市東梵天257",
      "lat": 39.386989,
      "lon": 140.063201
    },
    {
      "name": "カメラのキタムラ/イオンスタイル広面店",
      "address": "秋田県秋田市広面字堤敷19イオンスタイル広面店",
      "lat": 39.730926,
      "lon": 140.147016
    },
    {
      "name": "イオン中仙(1号機)",
      "address": "秋田県大仙市北長野字袴田188",
      "lat": 39.551307,
      "lon": 140.551439
    },
    {
      "name": "マックスバリュ西馬音内店",
      "address": "秋田県雄勝郡羽後町字西馬音内213マックスバリュ西馬音内店内",
      "lat": 39.194052,
      "lon": 140.410799
    },
    {
      "name": "マックスバリュ/カメラのキタムラ天王店",
      "address": "秋田県潟上市天王字蒲沼63-27マックスバリュ天王店内",
      "lat": 39.86511,
      "lon": 140.005725
    },
    {
      "name": "コメリパワー大館",
      "address": "秋田県大館市柄沢字小柄沢191番地",
      "lat": 40.267828,
      "lon": 140.581417
    },
    {
      "name": "ナイス外旭川店",
      "address": "秋田県秋田市外旭川字三後田31",
      "lat": 39.74901,
      "lon": 140.096993
    },
    {
      "name": "マックスバリュ新西目店",
      "address": "秋田県由利本荘市西目町沼田字新道下1111-1マックスバリュ新西目",
      "lat": 39.363269,
      "lon": 140.013512
    },
    {
      "name": "ツルハドラッグ若竹町",
      "address": "秋田県大仙市若竹町33-11",
      "lat": 39.468838,
      "lon": 140.470065
    },
    {
      "name": "ツルハドラッグ秋田仁井田",
      "address": "秋田県秋田市仁井田新田2丁目5番16号",
      "lat": 39.678816,
      "lon": 140.125551
    },
    {
      "name": "ツルハドラッグ天王長沼",
      "address": "秋田県潟上市天王字長沼9番2号",
      "lat": 39.812156,
      "lon": 140.050092
    },
    {
      "name": "ツルハドラッグ横手寿町",
      "address": "秋田県横手市寿町1番35号",
      "lat": 39.313437,
      "lon": 140.563996
    },
    {
      "name": "ツルハドラッグ秋田広面北",
      "address": "秋田県秋田市広面字蓮沼94-1",
      "lat": 39.725856,
      "lon": 140.150529
    },
    {
      "name": "マックスバリュ男鹿店",
      "address": "秋田県男鹿市脇本脇本字石館16マックスバリュ男鹿",
      "lat": 39.909432,
      "lon": 139.907116
    },
    {
      "name": "コメリパワー秋田卸町",
      "address": "秋田県秋田市卸町1丁目7番10号",
      "lat": 39.700663,
      "lon": 140.107066
    },
    {
      "name": "ダイソー秋田土崎",
      "address": "秋田県秋田市飯島道東1-1-35",
      "lat": 39.773524,
      "lon": 140.068543
    },
    {
      "name": "イオンモール秋田B",
      "address": "秋田県秋田市御所野地蔵田1-1イオン秋田御所野",
      "lat": 39.663163,
      "lon": 140.160929
    },
    {
      "name": "ザ・ビッグ能代長崎店",
      "address": "秋田県能代市字長崎41-1ザ・ビッグ能代長崎店内",
      "lat": 40.18658,
      "lon": 140.023833
    },
    {
      "name": "スーパーモールラッキー",
      "address": "秋田県横手市十文字町仁井田字東22-1",
      "lat": 39.215976,
      "lon": 140.520702
    },
    {
      "name": "イオンモール大曲A",
      "address": "秋田県大仙市和合字坪立177",
      "lat": 39.437695,
      "lon": 140.509273
    },
    {
      "name": "サンデー秋田自衛隊通店",
      "address": "秋田県秋田市土崎港北2-17-77",
      "lat": 39.760542,
      "lon": 140.082705
    },
    {
      "name": "スーパーマーケットよねやハッピーモール",
      "address": "秋田県横手市横手町五ノ口36-1",
      "lat": 39.3133,
      "lon": 140.546203
    },
    {
      "name": "マックスバリュ武道島",
      "address": "秋田県にかほ市象潟町武道島144-2",
      "lat": 39.205834,
      "lon": 139.905205
    },
    {
      "name": "カメラのキタムラ横手店",
      "address": "秋田県横手市婦気大堤字中田92-5",
      "lat": 39.296544,
      "lon": 140.555629
    },
    {
      "name": "カメラのキタムラ大館/イオンスーパーセンター大館店",
      "address": "秋田県大館市大田面238",
      "lat": 40.286371,
      "lon": 140.577047
    },
    {
      "name": "カメラのキタムラ秋田/広面店",
      "address": "秋田県秋田市広面字堤敷31-2",
      "lat": 39.728688,
      "lon": 140.147156
    },
    {
      "name": "カメラのキタムラ秋田/将軍野店",
      "address": "秋田県秋田市将軍野南3-7-7",
      "lat": 39.746939,
      "lon": 140.083251
    },
    {
      "name": "ツルハドラッグ美郷",
      "address": "秋田県仙北郡美郷町土崎字上宿240",
      "lat": 39.459361,
      "lon": 140.579161
    },
    {
      "name": "ツルハドラッグ毛馬内",
      "address": "秋田県鹿角市十和田毛馬内字南陣場30番地1",
      "lat": 40.262718,
      "lon": 140.768988
    },
    {
      "name": "ツルハドラッグ鹿角",
      "address": "秋田県鹿角市花輪字下夕町202",
      "lat": 40.200958,
      "lon": 140.793289
    },
    {
      "name": "ツルハドラッグ大館",
      "address": "秋田県大館市片山町3丁目1-1",
      "lat": 40.274158,
      "lon": 140.53811
    },
    {
      "name": "ツルハドラッグ横手西",
      "address": "秋田県横手市横手町字三ノ口4番1",
      "lat": 39.317929,
      "lon": 140.552294
    },
    {
      "name": "ファミリーマート大館中道店",
      "address": "秋田県大館市中道2-3-42",
      "lat": 40.281297,
      "lon": 140.555038
    },
    {
      "name": "由利本荘市役所",
      "address": "秋田県由利本荘市尾崎17",
      "lat": 39.386204,
      "lon": 140.049225
    },
    {
      "name": "イオンモール大曲B",
      "address": "秋田県大仙市和合字坪立177",
      "lat": 39.437695,
      "lon": 140.509273
    },
    {
      "name": "ナイス山手台店",
      "address": "秋田県秋田市山手台1-1-5",
      "lat": 39.695769,
      "lon": 140.149776
    },
    {
      "name": "ファミリーマート鹿角市役所前",
      "address": "秋田県鹿角市花輪字小深田298",
      "lat": 40.217461,
      "lon": 140.789677
    },
    {
      "name": "秋田市役所",
      "address": "秋田県秋田市山王1-1-1",
      "lat": 39.720113,
      "lon": 140.101768
    },
    {
      "name": "ファミリーマート大曲田町",
      "address": "秋田県大仙市大曲田町5-23",
      "lat": 39.450359,
      "lon": 140.482473
    },
    {
      "name": "ファミリーマート秋田新屋扇町",
      "address": "秋田県秋田市新屋扇町2-22",
      "lat": 39.682033,
      "lon": 140.086057
    },
    {
      "name": "ナイス土崎店",
      "address": "秋田県秋田市土崎港中央4-5-3",
      "lat": 39.752165,
      "lon": 140.07379
    },
    {
      "name": "ファミリーマート秋田御所野湯本店",
      "address": "秋田県秋田市御所野湯本2-1-21",
      "lat": 39.657395,
      "lon": 140.172218
    },
    {
      "name": "マックスバリュにかほ店",
      "address": "秋田県にかほ市平沢天ケ町82",
      "lat": 39.288285,
      "lon": 139.972961
    },
    {
      "name": "ザ・ビッグ大曲飯田店",
      "address": "秋田県大仙市飯田字屋敷通257",
      "lat": 39.438754,
      "lon": 140.483105
    },
    {
      "name": "ファミリーマート平鹿総合病院通",
      "address": "秋田県横手市横手町字五ノ口41-1",
      "lat": 39.314721,
      "lon": 140.545724
    },
    {
      "name": "ジェイマルエー旭南",
      "address": "秋田県秋田市旭南1-13-32",
      "lat": 39.709625,
      "lon": 140.107971
    },
    {
      "name": "ファミリーマート米沢御廟二丁目店",
      "address": "山形県米沢市御廟2-6-36",
      "lat": 37.911683,
      "lon": 140.091536
    },
    {
      "name": "八文字屋鶴岡店",
      "address": "山形県鶴岡市上畑町3-38",
      "lat": 38.735825,
      "lon": 139.830112
    },
    {
      "name": "カメラのキタムラ鶴岡/大塚店",
      "address": "山形県鶴岡市大塚町12-22",
      "lat": 38.735597,
      "lon": 139.808427
    },
    {
      "name": "カメラのキタムラ酒田/酒田店",
      "address": "山形県酒田市東大町2-6-1",
      "lat": 38.908531,
      "lon": 139.854514
    },
    {
      "name": "ツルハドラッグ飯豊",
      "address": "山形県西置賜郡飯豊町大字椿字井戸尻4642番地",
      "lat": 38.035717,
      "lon": 139.982437
    },
    {
      "name": "ツルハドラッグ余目",
      "address": "山形県東田川郡庄内町余目字滑石59-1",
      "lat": 38.844597,
      "lon": 139.89802
    },
    {
      "name": "ツルハドラッグ長井",
      "address": "山形県長井市小出3736-2",
      "lat": 38.093683,
      "lon": 140.03636
    },
    {
      "name": "ツルハドラッグ上山",
      "address": "山形県上山市長清水1丁目2-16",
      "lat": 38.146662,
      "lon": 140.277389
    },
    {
      "name": "ツルハドラッグ東根",
      "address": "山形県東根市温泉町3丁目3番6号",
      "lat": 38.460198,
      "lon": 140.386365
    },
    {
      "name": "ヤマザワ松見町店",
      "address": "山形県山形市松見町21-10",
      "lat": 38.231023,
      "lon": 140.340277
    },
    {
      "name": "ヨークベニマル上山",
      "address": "山形県上山市千石字元糸目913",
      "lat": 38.1469,
      "lon": 140.281504
    },
    {
      "name": "ヨークベニマル天童老野森",
      "address": "山形県天童市東久野本1-6-53",
      "lat": 38.367426,
      "lon": 140.380735
    },
    {
      "name": "イオン酒田南",
      "address": "山形県酒田市あきほ町120-1",
      "lat": 38.894101,
      "lon": 139.85381
    },
    {
      "name": "イオン東根",
      "address": "山形県東根市さくらんぼ駅前3-7-15",
      "lat": 38.427071,
      "lon": 140.387522
    },
    {
      "name": "ヤマザワ寒河江プラザ店",
      "address": "山形県寒河江市大字寒河江字横道65-1",
      "lat": 38.366291,
      "lon": 140.286172
    },
    {
      "name": "ツルハドラッグ酒田曙町",
      "address": "山形県酒田市曙町2丁目17番1",
      "lat": 38.920126,
      "lon": 139.863494
    },
    {
      "name": "ツルハドラッグ尾花沢新町",
      "address": "山形県尾花沢市新町一丁目6番30号",
      "lat": 38.602639,
      "lon": 140.410377
    },
    {
      "name": "ツルハドラッグ山形鉄砲町",
      "address": "山形県山形市鉄砲町1丁目14番9号",
      "lat": 38.23885,
      "lon": 140.328108
    },
    {
      "name": "丸井八文字屋",
      "address": "山形県新庄市沖の町1-3",
      "lat": 38.763176,
      "lon": 140.304768
    },
    {
      "name": "八文字屋みずほ店",
      "address": "山形県酒田市みずほ2-19",
      "lat": 38.903052,
      "lon": 139.853389
    },
    {
      "name": "マックスバリュ鶴岡南店",
      "address": "山形県鶴岡市ほなみ町9-35マックスバリュ鶴岡南店内",
      "lat": 38.717162,
      "lon": 139.844943
    },
    {
      "name": "マックスバリュ/カメラのキタムラNET藤島店",
      "address": "山形県鶴岡市藤島字新大坪1-1マックスバリュ藤島店内",
      "lat": 38.761595,
      "lon": 139.90627
    },
    {
      "name": "ツルハドラッグ村山西",
      "address": "山形県村山市大字河島字碇163番1",
      "lat": 38.481165,
      "lon": 140.363567
    },
    {
      "name": "ツルハドラッグ鶴岡東",
      "address": "山形県鶴岡市大宝寺町2番3号",
      "lat": 38.737401,
      "lon": 139.839506
    },
    {
      "name": "ツルハドラッグ中山あおば",
      "address": "山形県東村山郡中山町あおば22-6",
      "lat": 38.33768,
      "lon": 140.281589
    },
    {
      "name": "ツルハドラッグ酒田宮野浦",
      "address": "山形県酒田市緑ケ丘1丁目1-13",
      "lat": 38.903122,
      "lon": 139.816255
    },
    {
      "name": "ツルハドラッグ鶴岡新斎",
      "address": "山形県鶴岡市西新斎町1-38",
      "lat": 38.734967,
      "lon": 139.813593
    },
    {
      "name": "ツルハドラッグ山形宮町",
      "address": "山形県山形市宮町4丁目14番6号",
      "lat": 38.267481,
      "lon": 140.33852
    },
    {
      "name": "ツルハドラッグ山形吉原",
      "address": "山形県山形市吉原2丁目10番10号",
      "lat": 38.228441,
      "lon": 140.31229
    },
    {
      "name": "ツルハドラッグ長井中道",
      "address": "山形県長井市中道二丁目19番19号",
      "lat": 38.105993,
      "lon": 140.030931
    },
    {
      "name": "ツルハドラッグ山形松山",
      "address": "山形県山形市松山三丁目6番6号",
      "lat": 38.236737,
      "lon": 140.352954
    },
    {
      "name": "ツルハドラッグ東根中央",
      "address": "山形県東根市さくらんぼ駅前2丁目14番17号",
      "lat": 38.428227,
      "lon": 140.388399
    },
    {
      "name": "ツルハドラッグ山形東原",
      "address": "山形県山形市東原町一丁目11番17号",
      "lat": 38.248943,
      "lon": 140.348019
    },
    {
      "name": "ツルハドラッグ上山東",
      "address": "山形県上山市仙石字藤沼763-1",
      "lat": 38.138901,
      "lon": 140.314026
    },
    {
      "name": "ザ・ビッグ尾花沢",
      "address": "山形県尾花沢市尾花沢下新田1719",
      "lat": 38.601493,
      "lon": 140.404014
    },
    {
      "name": "ファミリーマート山形大学工学部店",
      "address": "山形県米沢市城南4-3-8",
      "lat": 37.90162,
      "lon": 140.103383
    },
    {
      "name": "ファミリーマート山形嶋店",
      "address": "山形県山形市嶋南3-6-13",
      "lat": 38.280415,
      "lon": 140.315631
    },
    {
      "name": "こまつ書店堀川町店",
      "address": "山形県米沢市堀川町4-68",
      "lat": 37.905044,
      "lon": 140.096168
    },
    {
      "name": "ヤマザワ上山",
      "address": "山形県上山市矢来3-2-1",
      "lat": 38.152207,
      "lon": 140.275847
    },
    {
      "name": "ファミリーマート寒河江中央二丁目店",
      "address": "山形県寒河江市中央2-10-7",
      "lat": 38.385085,
      "lon": 140.277644
    },
    {
      "name": "ヤマザワ宮町",
      "address": "山形県山形市宮町5-9-22",
      "lat": 38.264049,
      "lon": 140.337947
    },
    {
      "name": "ヨークベニマル南陽店",
      "address": "山形県南陽市三間通字成梨1259-1",
      "lat": 38.052645,
      "lon": 140.153366
    },
    {
      "name": "マックスバリュ最上",
      "address": "山形県最上郡最上町大字向町字村尻286-5",
      "lat": 38.759374,
      "lon": 140.513975
    },
    {
      "name": "こまつ書店東根",
      "address": "山形県東根市神町北2-8-1",
      "lat": 38.414699,
      "lon": 140.38331
    },
    {
      "name": "イオン米沢店",
      "address": "山形県米沢市春日2-13-4米沢サティ",
      "lat": 37.923389,
      "lon": 140.108829
    },
    {
      "name": "マックスバリュ東原町店",
      "address": "山形県山形市東原町4-17-7",
      "lat": 38.243826,
      "lon": 140.347006
    },
    {
      "name": "マックスバリュ東泉店",
      "address": "山形県酒田市東泉町4-1-15",
      "lat": 38.930603,
      "lon": 139.851098
    },
    {
      "name": "ザ・ビッグ酒田北店",
      "address": "山形県酒田市泉町214",
      "lat": 38.935468,
      "lon": 139.848998
    },
    {
      "name": "マックスバリュ余目店",
      "address": "山形県東田川郡庄内町余目字滑石57-1",
      "lat": 38.844203,
      "lon": 139.898615
    },
    {
      "name": "八文字屋本店",
      "address": "山形県山形市本町2-4-11",
      "lat": 38.25117,
      "lon": 140.338522
    },
    {
      "name": "ツルハドラッグ相馬",
      "address": "福島県相馬市小泉字根岸96番地1",
      "lat": 37.810295,
      "lon": 140.925429
    },
    {
      "name": "ツルハドラッグ神谷",
      "address": "福島県いわき市平塩字出口42",
      "lat": 37.060219,
      "lon": 140.921887
    },
    {
      "name": "カメラの清水エブリア店",
      "address": "福島県いわき市鹿島町米田字日渡5鹿島SCエブリア",
      "lat": 36.994128,
      "lon": 140.905189
    },
    {
      "name": "ツルハドラッグ塙",
      "address": "福島県東白川郡塙町大字塙字大町1丁目13番地",
      "lat": 36.958976,
      "lon": 140.409578
    },
    {
      "name": "ツルハドラッグ西郷",
      "address": "福島県西白河郡西郷村大字熊倉字折口原254番1",
      "lat": 37.139584,
      "lon": 140.152708
    },
    {
      "name": "いちい信夫ヶ丘店",
      "address": "福島県福島市矢倉下5番地いちい信夫ヶ丘",
      "lat": 37.77246,
      "lon": 140.487849
    },
    {
      "name": "ツルハドラッグ小名浜",
      "address": "福島県いわき市小名浜岡小名字小館19-6",
      "lat": 36.959699,
      "lon": 140.903444
    },
    {
      "name": "ツルハドラッグ川俣",
      "address": "福島県伊達郡川俣町大字鶴沢字学校前20-1",
      "lat": 37.665593,
      "lon": 140.576466
    },
    {
      "name": "ツルハドラッグいわき湯本",
      "address": "福島県いわき市常磐水野谷町諏訪ヶ崎5-1",
      "lat": 36.99638,
      "lon": 140.860037
    },
    {
      "name": "ツルハドラッグ上荒川",
      "address": "福島県いわき市平上荒川字桜町4番1",
      "lat": 37.034504,
      "lon": 140.889625
    },
    {
      "name": "ツルハドラッグ福島丸子",
      "address": "福島県福島市丸子字富塚3番1号",
      "lat": 37.785151,
      "lon": 140.473271
    },
    {
      "name": "ツルハドラッグ南会津",
      "address": "福島県南会津郡南会津町田島字谷地甲55-11",
      "lat": 37.202272,
      "lon": 139.76944
    },
    {
      "name": "ツルハドラッグ八山田",
      "address": "福島県郡山市喜久田町字上田向2-1",
      "lat": 37.435407,
      "lon": 140.351868
    },
    {
      "name": "ツルハドラッグいわき四倉",
      "address": "福島県いわき市四倉町上仁井田字南姥田61番1",
      "lat": 37.094298,
      "lon": 140.976962
    },
    {
      "name": "ファミリーマート郡山金屋店",
      "address": "福島県郡山市田村町金屋新家9-1",
      "lat": 37.369399,
      "lon": 140.388867
    },
    {
      "name": "ヨークベニマル門田店",
      "address": "福島県会津若松市天神町22-11",
      "lat": 37.480022,
      "lon": 139.933991
    },
    {
      "name": "カメラのキタムラ会津若松/白虎通り店",
      "address": "福島県会津若松市白虎1丁目2番地の1",
      "lat": 37.506339,
      "lon": 139.936524
    },
    {
      "name": "ブックエース植田店",
      "address": "福島県いわき市東田町2-10-6",
      "lat": 36.92283,
      "lon": 140.8025
    },
    {
      "name": "カメラのキタムラいわき/平店",
      "address": "福島県いわき市平字倉前112-12",
      "lat": 37.047778,
      "lon": 140.900894
    },
    {
      "name": "カメラのキタムラ福島/八木田店",
      "address": "福島県福島市八木田中島61-1",
      "lat": 37.750868,
      "lon": 140.446508
    },
    {
      "name": "ファミリーマート船引城ノ内店",
      "address": "福島県田村市船引町船引字城ノ内82",
      "lat": 37.439415,
      "lon": 140.567492
    },
    {
      "name": "ヨークベニマル結城四ツ京店",
      "address": "茨城県結城市大字結城11839-1",
      "lat": 36.30614,
      "lon": 139.868326
    },
    {
      "name": "ヨークベニマル結城四ツ京店",
      "address": "茨城県結城市大字結城11839-1",
      "lat": 36.30614,
      "lon": 139.868326
    },
    {
      "name": "ベイシア阿見店",
      "address": "茨城県稲敷郡阿見町荒川本郷2033-151",
      "lat": 36.021462,
      "lon": 140.183321
    },
    {
      "name": "ベイシアSM石岡東光台店",
      "address": "茨城県石岡市東光台4-12-34",
      "lat": 36.181996,
      "lon": 140.307414
    },
    {
      "name": "土浦市役所",
      "address": "茨城県土浦市大和町9番1号",
      "lat": 36.0783,
      "lon": 140.204327
    },
    {
      "name": "JR常陸多賀駅",
      "address": "茨城県日立市多賀町1-1",
      "lat": 36.551976,
      "lon": 140.632204
    },
    {
      "name": "かわねやフェスタ店",
      "address": "茨城県常陸太田市金井町江向2918",
      "lat": 36.537724,
      "lon": 140.504181
    },
    {
      "name": "ヨークベニマル赤塚店",
      "address": "茨城県水戸市姫子2-30",
      "lat": 36.381705,
      "lon": 140.416877
    },
    {
      "name": "ヨークベニマルひたちなか店",
      "address": "茨城県ひたちなか市大字東石川3614-1",
      "lat": 36.415816,
      "lon": 140.528196
    },
    {
      "name": "TAIRAYA新取手駅前",
      "address": "茨城県取手市新取手1丁目10-1",
      "lat": 35.916748,
      "lon": 140.045056
    },
    {
      "name": "TAIRAYA笠間店",
      "address": "茨城県笠間市寺崎字神田120",
      "lat": 36.049742,
      "lon": 140.004182
    },
    {
      "name": "マルヘイストア鹿嶋店",
      "address": "茨城県鹿嶋市大字宮津台4769-3",
      "lat": 35.985036,
      "lon": 140.640819
    },
    {
      "name": "カインズ阿見店",
      "address": "茨城県稲敷郡阿見町荒川本郷2033-177",
      "lat": 36.02258,
      "lon": 140.18201
    },
    {
      "name": "エコスTAIRAYAつくば大穂",
      "address": "茨城県つくば市筑穂2丁目6-6-7",
      "lat": 36.133776,
      "lon": 140.080609
    },
    {
      "name": "TAIRAYA松代",
      "address": "茨城県つくば市松代4-19-1",
      "lat": 36.063906,
      "lon": 140.104436
    },
    {
      "name": "昭和自動車教習所",
      "address": "茨城県水戸市千波町1987",
      "lat": 36.348291,
      "lon": 140.444489
    },
    {
      "name": "JR牛久駅",
      "address": "茨城県牛久市牛久町282",
      "lat": 35.977025,
      "lon": 140.141616
    },
    {
      "name": "ベルク古河諸川店",
      "address": "茨城県古河市諸川498-2",
      "lat": 36.199497,
      "lon": 139.823567
    },
    {
      "name": "フードスクエア牛久店",
      "address": "茨城県牛久市神谷6-1-3",
      "lat": 35.968458,
      "lon": 140.151756
    },
    {
      "name": "カメラのキタムラ水戸/下市店入口",
      "address": "茨城県水戸市柳町2丁目-3-15",
      "lat": 36.365997,
      "lon": 140.48943
    },
    {
      "name": "ウエルシア鹿嶋緑ヶ丘",
      "address": "茨城県鹿嶋市緑ヶ丘4丁目6番地7",
      "lat": 35.975364,
      "lon": 140.622954
    },
    {
      "name": "フードスクエア水戸見川店",
      "address": "茨城県水戸市見川2-3066-1",
      "lat": 36.375015,
      "lon": 140.43858
    },
    {
      "name": "ヨークベニマルつくばさくらの杜",
      "address": "茨城県つくば市さくらの森25-5",
      "lat": 36.105953,
      "lon": 140.126494
    },
    {
      "name": "ウエルシア常陸太田中城",
      "address": "茨城県常陸太田市中城町2992-1",
      "lat": 36.544156,
      "lon": 140.530006
    },
    {
      "name": "ウエルシア古河総和店",
      "address": "茨城県古河市下辺見2715",
      "lat": 36.174507,
      "lon": 139.732551
    },
    {
      "name": "フードスクエア大穂",
      "address": "茨城県つくば市筑穂1-15-6",
      "lat": 36.135108,
      "lon": 140.083514
    },
    {
      "name": "ウエルシア神栖土合本町",
      "address": "茨城県神栖市土合本町4-9809-451",
      "lat": 35.793704,
      "lon": 140.773217
    },
    {
      "name": "ウエルシア龍ヶ崎馴馬",
      "address": "茨城県龍ヶ崎市馴馬町2957-1",
      "lat": 35.913873,
      "lon": 140.18557
    },
    {
      "name": "ファミリーマート水戸笠原店",
      "address": "茨城県水戸市笠原町414-10",
      "lat": 36.337379,
      "lon": 140.454083
    },
    {
      "name": "ヨークベニマルつくばみらい店",
      "address": "茨城県つくばみらい市絹の台6-20-1",
      "lat": 35.976107,
      "lon": 139.973172
    },
    {
      "name": "伊勢甚友部スクエアスーパーマーケット正面入口右側",
      "address": "茨城県笠間市住吉字細谷1364番1",
      "lat": 36.331949,
      "lon": 140.320915
    },
    {
      "name": "JR赤塚駅",
      "address": "茨城県水戸市赤塚1-1866",
      "lat": 36.381864,
      "lon": 140.415306
    },
    {
      "name": "スーパーセンタートライアルつくば学園都市",
      "address": "茨城県つくば市学園の森A29街区",
      "lat": 36.094941,
      "lon": 140.082726
    },
    {
      "name": "JRひたち野うしく駅",
      "address": "茨城県牛久市中根町395-2",
      "lat": 36.007445,
      "lon": 140.158369
    },
    {
      "name": "ヨークベニマル豊里店",
      "address": "茨城県つくば市豊里の杜2-1-1",
      "lat": 36.100298,
      "lon": 140.046723
    },
    {
      "name": "ウエルシア古河三和東店",
      "address": "茨城県古河市諸川井耕地259-7",
      "lat": 36.20044,
      "lon": 139.824698
    },
    {
      "name": "ファミリーマート水戸堀町店",
      "address": "茨城県水戸市堀町1161-4",
      "lat": 36.399961,
      "lon": 140.429969
    },
    {
      "name": "カインズホーム日立店",
      "address": "茨城県日立市留町字前川1270-2",
      "lat": 36.491622,
      "lon": 140.604507
    },
    {
      "name": "カスミ那珂湊店",
      "address": "茨城県ひたちなか市栄町2-13-25",
      "lat": 36.345383,
      "lon": 140.581748
    },
    {
      "name": "カスミひたちなか笹野店",
      "address": "茨城県ひたちなか市笹野町1丁目12番3号",
      "lat": 36.397237,
      "lon": 140.542201
    },
    {
      "name": "ベイシア高萩",
      "address": "茨城県高萩市下手綱字ヤワコ田1058",
      "lat": 36.727917,
      "lon": 140.7162
    },
    {
      "name": "守谷ショッピングセンター",
      "address": "茨城県守谷市久保ヶ丘2-1-1",
      "lat": 35.967526,
      "lon": 139.975406
    },
    {
      "name": "ベイシアフードセンター日立",
      "address": "茨城県日立市留町字前川1270-2",
      "lat": 36.491622,
      "lon": 140.604507
    },
    {
      "name": "ブックエース下館店",
      "address": "茨城県筑西市市野辺223-1",
      "lat": 36.314336,
      "lon": 139.989217
    },
    {
      "name": "カスミ常陸太田",
      "address": "茨城県常陸太田市塙町2953",
      "lat": 36.542099,
      "lon": 140.529854
    },
    {
      "name": "ファミリーマートひたちなか田彦店",
      "address": "茨城県ひたちなか市大字田彦1396-1",
      "lat": 36.412408,
      "lon": 140.521127
    },
    {
      "name": "ファミリーマート土浦駅東店",
      "address": "茨城県土浦市港町1-5-14",
      "lat": 36.078996,
      "lon": 140.208725
    },
    {
      "name": "ファミリーマート土浦真鍋店",
      "address": "茨城県土浦市真鍋6-1-27",
      "lat": 36.101358,
      "lon": 140.202991
    },
    {
      "name": "ヨークベニマルひたち野うしく",
      "address": "茨城県牛久市ひたち野西3-29-16",
      "lat": 36.009709,
      "lon": 140.156382
    },
    {
      "name": "江戸崎ショッピングセンターパンプ",
      "address": "茨城県稲敷市江戸崎甲4836",
      "lat": 35.959274,
      "lon": 140.315774
    },
    {
      "name": "ヨークベニマル東大島店",
      "address": "茨城県ひたちなか市東大島2-13-15",
      "lat": 36.40599,
      "lon": 140.53008
    },
    {
      "name": "ヤオコー野木店",
      "address": "栃木県下都賀郡野木町大字友沼5309",
      "lat": 36.228879,
      "lon": 139.729974
    },
    {
      "name": "ヤオコー佐野浅沼店",
      "address": "栃木県佐野市浅沼町字富士之宮121",
      "lat": 36.30607,
      "lon": 139.590229
    },
    {
      "name": "カスミ壬生店",
      "address": "栃木県下都賀郡壬生町大師町30-22",
      "lat": 36.432851,
      "lon": 139.8026
    },
    {
      "name": "イオン栃木",
      "address": "栃木県栃木市箱森町37-9",
      "lat": 36.395025,
      "lon": 139.724751
    },
    {
      "name": "イオン佐野新都市",
      "address": "栃木県佐野市高萩町1324-1",
      "lat": 36.299642,
      "lon": 139.606642
    },
    {
      "name": "イオンみぶ",
      "address": "栃木県下都賀郡壬生町大字壬生丁字六美219",
      "lat": 36.461926,
      "lon": 139.836612
    },
    {
      "name": "イトーヨーカドー宇都宮店",
      "address": "栃木県宇都宮市陽東6-2-1",
      "lat": 36.55361,
      "lon": 139.928342
    },
    {
      "name": "ファミリーマート佐野北茂呂町店",
      "address": "栃木県佐野市北茂呂町北茂呂3-3",
      "lat": 36.324666,
      "lon": 139.575084
    },
    {
      "name": "ファミリーマート国分寺川中子店",
      "address": "栃木県下野市川中子3329-492",
      "lat": 36.370742,
      "lon": 139.836896
    },
    {
      "name": "カメラのキタムラ宇都宮/FKD宇都宮店",
      "address": "栃木県宇都宮市今泉町237FDK宇都宮店3F",
      "lat": 36.53226,
      "lon": 139.901935
    },
    {
      "name": "カメラのキタムラ小山店店舗前",
      "address": "栃木県小山市西城南4-4-3",
      "lat": 36.294647,
      "lon": 139.806309
    },
    {
      "name": "ファミリーマート鹿沼村井町店",
      "address": "栃木県鹿沼市上殿町352-15",
      "lat": 36.550728,
      "lon": 139.747455
    },
    {
      "name": "芳賀工業団地管理センター",
      "address": "栃木県芳賀郡芳賀町芳賀台98",
      "lat": 36.564173,
      "lon": 140.01202
    },
    {
      "name": "ファミリーマート那須黒田原店",
      "address": "栃木県那須郡那須町大字寺子丙1-121",
      "lat": 37.019981,
      "lon": 140.118555
    },
    {
      "name": "スーパービバホーム足利込店",
      "address": "栃木県足利市堀込町宇宮前250番1",
      "lat": 36.308886,
      "lon": 139.439816
    },
    {
      "name": "フレッセイ足利南店",
      "address": "栃木県足利市福居町254-1",
      "lat": 36.310316,
      "lon": 139.448448
    },
    {
      "name": "カメラのキタムラ足利南店",
      "address": "栃木県足利市福居町280-1",
      "lat": 36.312667,
      "lon": 139.446263
    },
    {
      "name": "イオン佐野新都心1F専門店",
      "address": "栃木県佐野市高萩町1324-1",
      "lat": 36.299642,
      "lon": 139.606642
    },
    {
      "name": "ベイシア大田原店",
      "address": "栃木県大田原市住吉町1-14-12",
      "lat": 36.870827,
      "lon": 140.019327
    },
    {
      "name": "イオンショッピングセンター那須塩原店",
      "address": "栃木県那須塩原市島方455",
      "lat": 36.930841,
      "lon": 140.008221
    },
    {
      "name": "イオン佐野新都心1F食品側",
      "address": "栃木県佐野市高萩町1324-1",
      "lat": 36.299642,
      "lon": 139.606642
    },
    {
      "name": "ベイシア宇都宮陽東店",
      "address": "栃木県宇都宮市陽東3-27-20",
      "lat": 36.556442,
      "lon": 139.925366
    },
    {
      "name": "ベイシア烏山店",
      "address": "栃木県那須烏山市城東1880",
      "lat": 36.659917,
      "lon": 140.159171
    },
    {
      "name": "ビバモール鹿沼店",
      "address": "栃木県鹿沼市睦町字川西城下287-1",
      "lat": 36.571668,
      "lon": 139.75291
    },
    {
      "name": "カインズホーム足利大月店",
      "address": "栃木県足利市大月町3-2",
      "lat": 36.33614,
      "lon": 139.476006
    },
    {
      "name": "カスミ二宮店",
      "address": "栃木県真岡市石島字大道812",
      "lat": 36.41764,
      "lon": 139.965906
    },
    {
      "name": "タイムクリップ足利助戸店",
      "address": "栃木県足利市助戸1丁目670-1",
      "lat": 0.0,
      "lon": 0.0
    },
    {
      "name": "ヤオコー足利店",
      "address": "栃木県足利市大橋町1-2026-1",
      "lat": 36.343174,
      "lon": 139.466781
    },
    {
      "name": "カインズ小山",
      "address": "栃木県小山市立木1041",
      "lat": 36.321277,
      "lon": 139.792016
    },
    {
      "name": "たいらや滝谷店",
      "address": "栃木県宇都宮市滝谷町19-8",
      "lat": 36.550831,
      "lon": 139.868044
    },
    {
      "name": "ヨークベニマル大田原住吉",
      "address": "栃木県大田原市住吉町2-6-5",
      "lat": 36.872646,
      "lon": 140.02456
    },
    {
      "name": "フレッセイ佐野",
      "address": "栃木県佐野市赤坂町956-19",
      "lat": 36.303557,
      "lon": 139.565
    },
    {
      "name": "フレッセイ通町",
      "address": "栃木県足利市通3-2600-1",
      "lat": 36.336717,
      "lon": 139.447315
    },
    {
      "name": "カワチ薬品一条",
      "address": "栃木県宇都宮市旭2-15-16",
      "lat": 36.551935,
      "lon": 139.883546
    },
    {
      "name": "文真堂書店葉鹿店",
      "address": "栃木県足利市葉鹿町1-24-1",
      "lat": 36.364339,
      "lon": 139.391603
    },
    {
      "name": "ベイシアマート今市店",
      "address": "栃木県日光市今市1109-1",
      "lat": 36.725058,
      "lon": 139.693306
    },
    {
      "name": "ベイシア今市モール店",
      "address": "栃木県日光市芹沼字石神殿1470-1",
      "lat": 36.739645,
      "lon": 139.708305
    },
    {
      "name": "ベイシア大平モール店",
      "address": "栃木県栃木市大平町下皆川849-1",
      "lat": 36.353737,
      "lon": 139.711059
    },
    {
      "name": "ベイシアマート足利借宿",
      "address": "栃木県足利市借宿町549-1",
      "lat": 36.328329,
      "lon": 139.430149
    },
    {
      "name": "ベイシア益子",
      "address": "栃木県芳賀郡益子町七井中央10-1",
      "lat": 36.491664,
      "lon": 140.099186
    },
    {
      "name": "たいらや石井店",
      "address": "栃木県宇都宮市石井町2800-57",
      "lat": 36.547209,
      "lon": 139.927488
    },
    {
      "name": "ベイシアさくら氏家",
      "address": "栃木県さくら市氏家725",
      "lat": 36.666877,
      "lon": 139.960234
    },
    {
      "name": "ヨークベニマル黒磯店",
      "address": "栃木県那須塩原市黒磯幸町2-14",
      "lat": 0.0,
      "lon": 0.0
    },
    {
      "name": "ウエルシア小山羽川店",
      "address": "栃木県小山市大字羽川字下田57",
      "lat": 36.349779,
      "lon": 139.824601
    },
    {
      "name": "ウエルシア宇都宮双葉店",
      "address": "栃木県宇都宮市双葉3-15-2",
      "lat": 36.529209,
      "lon": 139.857887
    },
    {
      "name": "カメラのキタムラ黒磯店",
      "address": "栃木県那須塩原市住吉町6-21",
      "lat": 36.966343,
      "lon": 140.047466
    },
    {
      "name": "ファミリーマート宇都宮本町大通り店",
      "address": "栃木県宇都宮市本町4-11下野新聞ビル1F",
      "lat": 36.561992,
      "lon": 139.882926
    },
    {
      "name": "カメラのキタムラ佐野店店舗前",
      "address": "栃木県佐野市浅沼町419ー1",
      "lat": 36.312929,
      "lon": 139.591253
    },
    {
      "name": "カインズホーム西那須野店",
      "address": "栃木県那須塩原市南郷屋2-148-16",
      "lat": 36.893859,
      "lon": 139.98226
    },
    {
      "name": "ファミリーマート大田原北金丸店",
      "address": "栃木県大田原市北金丸1852-8",
      "lat": 36.87278,
      "lon": 140.073953
    },
    {
      "name": "ファミリーマート高崎問屋町二丁目店",
      "address": "群馬県高崎市問屋町二丁目11-2-1",
      "lat": 36.350625,
      "lon": 139.011131
    },
    {
      "name": "タイムクリップ群馬町店",
      "address": "群馬県高崎市中泉町629-4",
      "lat": 36.368883,
      "lon": 139.001186
    },
    {
      "name": "ベイシアおおたモール店",
      "address": "群馬県太田市飯塚町626-1",
      "lat": 36.275614,
      "lon": 139.387322
    },
    {
      "name": "ベイシア前橋川曲店",
      "address": "群馬県前橋市川曲町361番地",
      "lat": 36.353672,
      "lon": 139.05078
    },
    {
      "name": "文真堂書店大胡店",
      "address": "群馬県前橋市堀越町351-4",
      "lat": 36.412479,
      "lon": 139.147558
    },
    {
      "name": "ベイシア前橋みなみモール店",
      "address": "群馬県前橋市新堀町893",
      "lat": 36.330085,
      "lon": 139.095449
    },
    {
      "name": "タイムクリップ大間々店",
      "address": "群馬県みどり市大間々町大間々9-1",
      "lat": 36.415308,
      "lon": 139.287824
    },
    {
      "name": "タイムクリップ渋川中央店",
      "address": "群馬県渋川市石原13-1",
      "lat": 36.49133,
      "lon": 138.999324
    },
    {
      "name": "ブックマンズアカデミー太田店",
      "address": "群馬県太田市新井町502-2",
      "lat": 36.285295,
      "lon": 139.373525
    },
    {
      "name": "タイムクリップ安中店",
      "address": "群馬県安中市高別当406",
      "lat": 36.325778,
      "lon": 138.883628
    },
    {
      "name": "ベイシア伊勢崎駅前店",
      "address": "群馬県伊勢崎市都市計画事業伊勢崎駅周辺第一土地区画整理事業2-1街区2-10",
      "lat": 36.326435,
      "lon": 139.193111
    },
    {
      "name": "文真堂書店小出店",
      "address": "群馬県前橋市上小出町2-5-6",
      "lat": 36.413576,
      "lon": 139.06067
    },
    {
      "name": "文真堂書店一の宮店",
      "address": "群馬県富岡市一の宮1725",
      "lat": 36.261966,
      "lon": 138.869543
    },
    {
      "name": "ベイシア伊勢崎バイパス店",
      "address": "群馬県伊勢崎市連取町2336-7",
      "lat": 36.310424,
      "lon": 139.183629
    },
    {
      "name": "ベイシアマート邑楽店",
      "address": "群馬県邑楽郡邑楽町大字鶉781-8",
      "lat": 36.270844,
      "lon": 139.496545
    },
    {
      "name": "ベイシアマート大胡",
      "address": "群馬県前橋市樋越町828",
      "lat": 36.412091,
      "lon": 139.169852
    },
    {
      "name": "ベイシア大胡",
      "address": "群馬県前橋市堀越町377",
      "lat": 36.415107,
      "lon": 139.144848
    },
    {
      "name": "ベイシアマート太田富沢",
      "address": "群馬県太田市富沢町282-1",
      "lat": 36.265039,
      "lon": 139.356471
    },
    {
      "name": "ベイシア渋川こもち",
      "address": "群馬県渋川市吹屋657-30",
      "lat": 36.518046,
      "lon": 139.014311
    },
    {
      "name": "ベイシア大間々",
      "address": "群馬県みどり市大間々町大間々1773-1",
      "lat": 36.427276,
      "lon": 139.278212
    },
    {
      "name": "ベイシアマート安中郷原",
      "address": "群馬県安中市郷原字中原313",
      "lat": 36.307374,
      "lon": 138.84355
    },
    {
      "name": "ベイシア沼田",
      "address": "群馬県沼田市久屋原町字吉野415",
      "lat": 36.666264,
      "lon": 139.108476
    },
    {
      "name": "ベイシアふじみ",
      "address": "群馬県前橋市富士見町原之郷643",
      "lat": 36.43276,
      "lon": 139.067959
    },
    {
      "name": "桐生市役所",
      "address": "群馬県桐生市織姫町1-1",
      "lat": 36.405423,
      "lon": 139.330503
    },
    {
      "name": "カメラのキタムラ富岡店",
      "address": "群馬県富岡市富岡2363-1",
      "lat": 36.264237,
      "lon": 138.890105
    },
    {
      "name": "フレッセイフィール藤岡店",
      "address": "群馬県藤岡市中栗須390",
      "lat": 36.260694,
      "lon": 139.072083
    },
    {
      "name": "フレッセイ太田飯塚店",
      "address": "群馬県太田市飯塚町681-1",
      "lat": 36.278176,
      "lon": 139.388753
    },
    {
      "name": "前橋リリカ",
      "address": "群馬県前橋市国領町2-14-1",
      "lat": 36.404654,
      "lon": 139.068046
    },
    {
      "name": "戸田書店高崎店",
      "address": "群馬県高崎市下小鳥町438-1",
      "lat": 36.352827,
      "lon": 138.999719
    },
    {
      "name": "カワチ薬品伊勢崎西",
      "address": "群馬県伊勢崎市連取町1309-1",
      "lat": 36.317184,
      "lon": 139.17684
    },
    {
      "name": "フレッセイ館林美園店",
      "address": "群馬県館林市美園町14-4",
      "lat": 36.234283,
      "lon": 139.535075
    },
    {
      "name": "カワチ薬品大八木",
      "address": "群馬県高崎市大八木町622-4",
      "lat": 36.362276,
      "lon": 139.002195
    },
    {
      "name": "フレッセイ朝倉店",
      "address": "群馬県前橋市朝倉町923",
      "lat": 36.367338,
      "lon": 139.08593
    },
    {
      "name": "ベルク前橋総社町",
      "address": "群馬県前橋市総社町高井530-1",
      "lat": 36.412282,
      "lon": 139.025808
    },
    {
      "name": "けやきウォーク前橋店アピタ東出入口/ATMコーナー出入口付近",
      "address": "群馬県前橋市文京町2丁目1-1けやきウォーク前橋店1F",
      "lat": 36.379191,
      "lon": 139.077845
    },
    {
      "name": "フレッセイ大胡店",
      "address": "群馬県前橋市大胡町399",
      "lat": 36.410649,
      "lon": 139.15923
    },
    {
      "name": "ウエルシア玉村下新田店",
      "address": "群馬県佐波郡玉村町下新田743-2",
      "lat": 36.30228,
      "lon": 139.117164
    },
    {
      "name": "フォルテ太田店",
      "address": "群馬県太田市別所町328-3",
      "lat": 36.301523,
      "lon": 139.332434
    },
    {
      "name": "ウエルシア高崎上佐野",
      "address": "群馬県高崎市上佐野町粕沢907-1",
      "lat": 36.306514,
      "lon": 139.02671
    },
    {
      "name": "カワチ薬品桐生西",
      "address": "群馬県桐生市相生町5-470-4",
      "lat": 36.414934,
      "lon": 139.28949
    },
    {
      "name": "カワチ薬品高崎駅東",
      "address": "群馬県高崎市高関町44-1",
      "lat": 36.32258,
      "lon": 139.028303
    },
    {
      "name": "高崎OPA",
      "address": "群馬県高崎市八島町46-1",
      "lat": 36.323161,
      "lon": 139.011267
    },
    {
      "name": "カワチ薬品吉岡",
      "address": "群馬県北群馬郡吉岡町大久保字金竹西1480-1",
      "lat": 36.429043,
      "lon": 139.021837
    },
    {
      "name": "カワチ薬品渋川",
      "address": "群馬県渋川市阿久津字北原15",
      "lat": 36.508656,
      "lon": 139.003636
    },
    {
      "name": "ベイシア高崎倉賀野",
      "address": "群馬県高崎市倉賀野町3100‐5",
      "lat": 36.294777,
      "lon": 139.060712
    },
    {
      "name": "ベイシア太田丸山店",
      "address": "群馬県太田市丸山町1260‐1",
      "lat": 36.344171,
      "lon": 139.381845
    },
    {
      "name": "ファミリーマート高崎宮元町",
      "address": "群馬県高崎市宮元町229番地",
      "lat": 36.324011,
      "lon": 139.005177
    },
    {
      "name": "フレッセイ沼田栄町店",
      "address": "群馬県沼田市栄町210-1",
      "lat": 36.637137,
      "lon": 139.045105
    },
    {
      "name": "ベルク渋川店",
      "address": "群馬県渋川市渋川1815-42",
      "lat": 36.494058,
      "lon": 139.005911
    },
    {
      "name": "ベルク前橋北代田店",
      "address": "群馬県前橋市北代田町30-1",
      "lat": 36.414447,
      "lon": 139.06846
    },
    {
      "name": "ウエルシア川口朝日町5丁目",
      "address": "埼玉県川口市朝日5-8-20",
      "lat": 35.807583,
      "lon": 139.747181
    },
    {
      "name": "ヤマダデンキ浦和埼大通り店",
      "address": "埼玉県さいたま市桜区大字上大久保725",
      "lat": 35.867988,
      "lon": 139.613321
    },
    {
      "name": "ヤオコー熊谷籠原店",
      "address": "埼玉県熊谷市拾六間字俊原706-3",
      "lat": 36.170592,
      "lon": 139.318405
    },
    {
      "name": "ファミリーマート朝霞東弁財",
      "address": "埼玉県朝霞市東弁財2-6-1",
      "lat": 35.811995,
      "lon": 139.585305
    },
    {
      "name": "ファミリーマートさいたま神田店",
      "address": "埼玉県さいたま市桜区大字神田248-1",
      "lat": 35.873471,
      "lon": 139.606993
    },
    {
      "name": "カワチ薬局春日部店",
      "address": "埼玉県春日部市豊町3-11-2",
      "lat": 35.967814,
      "lon": 139.741263
    },
    {
      "name": "カインズホーム行田店",
      "address": "埼玉県行田市大字持田780",
      "lat": 36.131496,
      "lon": 139.449619
    },
    {
      "name": "ウエルシア春日部駅西口2号店",
      "address": "埼玉県春日部市中央1-49-1",
      "lat": 35.978268,
      "lon": 139.75299
    },
    {
      "name": "ビバモール加須店",
      "address": "埼玉県加須市下高柳1-29",
      "lat": 36.111095,
      "lon": 139.605529
    },
    {
      "name": "タイムクリップ幸手店",
      "address": "埼玉県幸手市大字上高野1406",
      "lat": 36.057566,
      "lon": 139.715295
    },
    {
      "name": "コジマXビックカメラ新座店",
      "address": "埼玉県新座市野火止6-1-10",
      "lat": 35.8003,
      "lon": 139.561049
    },
    {
      "name": "ファミリーマート草加弁天五丁目店",
      "address": "埼玉県草加市弁天5-1-1",
      "lat": 35.844363,
      "lon": 139.815161
    },
    {
      "name": "マミーマート所沢山口店",
      "address": "埼玉県所沢市大字山口808-3",
      "lat": 35.77845,
      "lon": 139.440858
    },
    {
      "name": "ヤオコー小川SC",
      "address": "埼玉県比企郡小川町大塚1152-1",
      "lat": 36.058079,
      "lon": 139.259354
    },
    {
      "name": "ファミリーマートさいたま本町東二丁目",
      "address": "埼玉県さいたま市中央区本町東2-18-7",
      "lat": 35.882716,
      "lon": 139.625869
    },
    {
      "name": "スーパービバホーム埼玉大井店",
      "address": "埼玉県ふじみ野市西鶴ケ岡1-3-15",
      "lat": 35.863788,
      "lon": 139.50222
    },
    {
      "name": "長崎屋蓮田店",
      "address": "埼玉県蓮田市東4-5-13",
      "lat": 35.980215,
      "lon": 139.6578
    },
    {
      "name": "ヨドバシカメラさいたま新都心駅前",
      "address": "埼玉県さいたま市大宮区吉敷町4-263-6",
      "lat": 35.898745,
      "lon": 139.630306
    },
    {
      "name": "ファミリーマート上尾原市西店",
      "address": "埼玉県上尾市大字原市339-5",
      "lat": 35.96006,
      "lon": 139.623834
    },
    {
      "name": "JR上尾駅",
      "address": "埼玉県上尾市柏座",
      "lat": 35.973603,
      "lon": 139.583471
    },
    {
      "name": "ビバホーム草加",
      "address": "埼玉県草加市谷塚仲町488",
      "lat": 35.817124,
      "lon": 139.794798
    },
    {
      "name": "スーパービバホームさいたま新都心",
      "address": "埼玉県さいたま市浦和区上木崎1-13-1",
      "lat": 35.887975,
      "lon": 139.634848
    },
    {
      "name": "ヤオコー深谷上野台店",
      "address": "埼玉県深谷市大字上野台3028-1",
      "lat": 36.18659,
      "lon": 139.274084
    },
    {
      "name": "カスミ白岡店",
      "address": "埼玉県南埼玉郡白岡町西4-2-6",
      "lat": 36.022142,
      "lon": 139.658875
    },
    {
      "name": "ファミリーマート川口南鳩ヶ谷店",
      "address": "埼玉県川口市南鳩ヶ谷3-17-21",
      "lat": 35.815507,
      "lon": 139.739531
    },
    {
      "name": "プラザホテル浦和店",
      "address": "埼玉県さいたま市南区鹿手袋1-1-1",
      "lat": 35.85344,
      "lon": 139.638109
    },
    {
      "name": "NTTル・パルク大宮下町第1バイク",
      "address": "埼玉県さいたま市大宮区下町2-61",
      "lat": 35.903072,
      "lon": 139.628794
    },
    {
      "name": "マルエツ松原店",
      "address": "埼玉県草加市栄町3-8-13",
      "lat": 35.845846,
      "lon": 139.800904
    },
    {
      "name": "スーパーアルプス入間藤沢店",
      "address": "埼玉県入間市大字下藤沢188-1",
      "lat": 35.825476,
      "lon": 139.40515
    },
    {
      "name": "ファミリーマート中浦和駅前",
      "address": "埼玉県さいたま市南区関1-1-9",
      "lat": 35.852682,
      "lon": 139.637679
    },
    {
      "name": "マミーマート桶川坂田店",
      "address": "埼玉県桶川市大字坂田400-5",
      "lat": 36.016264,
      "lon": 139.568727
    },
    {
      "name": "カワチ薬局新田駅前店",
      "address": "埼玉県草加市金明町字道上463-2",
      "lat": 35.854111,
      "lon": 139.793705
    },
    {
      "name": "におどりプラザ三郷中央",
      "address": "埼玉県三郷市中央1-14-2",
      "lat": 35.82353,
      "lon": 139.876127
    },
    {
      "name": "ヨークマート草加店",
      "address": "埼玉県草加市中央1-6-9",
      "lat": 35.826827,
      "lon": 139.812107
    },
    {
      "name": "西友所沢ニュータウン店",
      "address": "埼玉県所沢市中新井3-20-37",
      "lat": 35.815219,
      "lon": 139.475392
    },
    {
      "name": "ベルク北坂戸店",
      "address": "埼玉県坂戸市末広町20-2",
      "lat": 35.976837,
      "lon": 139.398263
    },
    {
      "name": "ヤオコー一本松南店",
      "address": "埼玉県鶴ヶ島市新町4-10-4",
      "lat": 35.934999,
      "lon": 139.36952
    },
    {
      "name": "ファミリーマート川口元郷店",
      "address": "埼玉県川口市元郷4-3-1",
      "lat": 35.79636,
      "lon": 139.73247
    },
    {
      "name": "ウエルパーク新座石神店",
      "address": "埼玉県新座市石神井3-19-33",
      "lat": 35.767915,
      "lon": 139.551167
    },
    {
      "name": "ベルク南古谷店",
      "address": "埼玉県川越市大字並木246-1",
      "lat": 35.901988,
      "lon": 139.520006
    },
    {
      "name": "コープ今泉",
      "address": "埼玉県上尾市川275-1",
      "lat": 35.965516,
      "lon": 139.580246
    },
    {
      "name": "JR北上尾駅",
      "address": "埼玉県上尾市原新町3",
      "lat": 35.98585,
      "lon": 139.577114
    },
    {
      "name": "カメラのキタムラ越谷花田店店舗前",
      "address": "埼玉県越谷市花田2丁目29-12",
      "lat": 35.909172,
      "lon": 139.797903
    },
    {
      "name": "ファミリーマートさいたま辻八丁目店",
      "address": "埼玉県さいたま市南区辻8-22-21",
      "lat": 35.829059,
      "lon": 139.661955
    },
    {
      "name": "コープ狭山台",
      "address": "埼玉県狭山市狭山台2-29-1",
      "lat": 35.8553,
      "lon": 139.435156
    },
    {
      "name": "ファミリーマート浦和根岸店",
      "address": "埼玉県さいたま市南区根岸2-14-1",
      "lat": 35.842078,
      "lon": 139.664691
    },
    {
      "name": "ウニクス川越南口",
      "address": "埼玉県川越市新宿町1-17-1",
      "lat": 35.904496,
      "lon": 139.480092
    },
    {
      "name": "ファミリーマート戸田全農通り店",
      "address": "埼玉県戸田市新曽1648",
      "lat": 35.825018,
      "lon": 139.662481
    },
    {
      "name": "浦和コルソB1F",
      "address": "埼玉県さいたま市浦和区高砂1-12-1",
      "lat": 35.85838,
      "lon": 139.655852
    },
    {
      "name": "カメラのキタムラ川口/芝店店舗入口",
      "address": "埼玉県川口市芝下3丁目19番17号",
      "lat": 35.840597,
      "lon": 139.700771
    },
    {
      "name": "カスミ八街朝日店",
      "address": "千葉県八街市八街に252-6",
      "lat": 35.669167,
      "lon": 140.337533
    },
    {
      "name": "ファミリーマート館山駅東口店",
      "address": "千葉県館山市北条2225-1",
      "lat": 34.996756,
      "lon": 139.863873
    },
    {
      "name": "ウエルシア佐倉志津店",
      "address": "千葉県佐倉市上志津1602-1",
      "lat": 35.714743,
      "lon": 140.14253
    },
    {
      "name": "イオンスタイル千葉みなと",
      "address": "千葉県千葉市中央区問屋町2-29",
      "lat": 35.600423,
      "lon": 140.113645
    },
    {
      "name": "ビックカメラ柏店",
      "address": "千葉県柏市柏1-1-20スカイプラザ柏",
      "lat": 35.862268,
      "lon": 139.971984
    },
    {
      "name": "銚子大洋自動車教習所",
      "address": "千葉県銚子市長塚町3-654",
      "lat": 35.740219,
      "lon": 140.796737
    },
    {
      "name": "イトーヨーカドー八柱店",
      "address": "千葉県松戸市日暮1-15-8",
      "lat": 35.790974,
      "lon": 139.939814
    },
    {
      "name": "流山おおたかの森ショッピングセンター",
      "address": "千葉県流山市西初石6-185-2",
      "lat": 35.870222,
      "lon": 139.923796
    },
    {
      "name": "イオンモール幕張新都心店グランドモール1Fモール側PETモール渡り通路下",
      "address": "千葉県千葉市美浜区豊砂1-1グランドモール1Fモール側1F",
      "lat": 35.651471,
      "lon": 140.037071
    },
    {
      "name": "ウエルシア富津大貫店",
      "address": "千葉県富津市西大和田1340",
      "lat": 35.300281,
      "lon": 139.857611
    },
    {
      "name": "カインズホーム銚子店",
      "address": "千葉県銚子市芦崎町810",
      "lat": 35.75552,
      "lon": 140.774512
    },
    {
      "name": "マルエツ安食店",
      "address": "千葉県印旗郡栄町安食台1-3-4",
      "lat": 35.841072,
      "lon": 140.244898
    },
    {
      "name": "イオンモール幕張新都心店ファミリーモール1F立体駐車場エレベータ横",
      "address": "千葉県千葉市美浜区豊砂1-5ファミリーモール1F駐車場側1F",
      "lat": 35.654807,
      "lon": 140.028684
    },
    {
      "name": "ウエルシア袖ケ浦奈良輪店",
      "address": "千葉県袖ケ浦市奈良輪1416",
      "lat": 35.434819,
      "lon": 139.960486
    },
    {
      "name": "イオン千葉ニュータウン店",
      "address": "千葉県印西市中央北3-1-1",
      "lat": 35.802869,
      "lon": 140.113644
    },
    {
      "name": "イオンモール幕張新都心グランドモール1Fイオン",
      "address": "千葉県千葉市美浜区豊砂1-1グランドモール1Fイオン側立体駐車場1F",
      "lat": 35.652966,
      "lon": 140.033038
    },
    {
      "name": "ウエルシア我孫子新木駅前",
      "address": "千葉県我孫子市南新木2-2-1",
      "lat": 35.861654,
      "lon": 140.106885
    },
    {
      "name": "イオンモール千葉ニュータウン店北入口1F駐車場",
      "address": "千葉県印西市中央北3-1-1イオンモール千葉ニュータウンイオン側1F",
      "lat": 35.802473,
      "lon": 140.1129
    },
    {
      "name": "イオン鎌ヶ谷店新鎌ヶ谷駅側入口自転車置き場付近",
      "address": "千葉県鎌ヶ谷市新鎌ヶ谷2-7-1イオン鎌ヶ谷ショッピングセンター2F",
      "lat": 35.779369,
      "lon": 140.001096
    },
    {
      "name": "マルエツ小林店",
      "address": "千葉県印西市小林北2-10",
      "lat": 35.830571,
      "lon": 140.194123
    },
    {
      "name": "イオンモール幕張新都心店アクティブモール1F立体駐車場エレベータ横",
      "address": "千葉県千葉市美浜区豊砂1-6アクティブモール1F立体駐車場側1F",
      "lat": 35.654807,
      "lon": 140.028684
    },
    {
      "name": "L&Mスポーツクラブ",
      "address": "千葉県香取市北2-7-16",
      "lat": 35.897824,
      "lon": 140.492964
    },
    {
      "name": "フォルテベルク船橋店",
      "address": "千葉県船橋市行田1-50-2",
      "lat": 35.719548,
      "lon": 139.979156
    },
    {
      "name": "イオンタウンおゆみ野",
      "address": "千葉県千葉市緑区おゆみ野5-37-1",
      "lat": 35.553953,
      "lon": 140.185282
    },
    {
      "name": "イオンモール津田沼店正面入口付近",
      "address": "千葉県習志野市津田沼1丁目23番1号イオンモール津田沼1F",
      "lat": 35.690386,
      "lon": 140.024934
    },
    {
      "name": "ファミリーマート我孫子湖北台店",
      "address": "千葉県我孫子市湖北台7-13-58",
      "lat": 35.86476,
      "lon": 140.068784
    },
    {
      "name": "リブレ京成幕張本郷店",
      "address": "千葉県千葉市花見川区幕張本郷6-20-30",
      "lat": 35.675515,
      "lon": 140.043376
    },
    {
      "name": "カメラのキタムラ千葉/おゆみ野店入口",
      "address": "千葉県千葉市緑区おゆみ野南6-8-6",
      "lat": 35.543674,
      "lon": 140.183131
    },
    {
      "name": "ダイエー新松戸店C",
      "address": "千葉県松戸市新松戸3-2-2",
      "lat": 35.825187,
      "lon": 139.915708
    },
    {
      "name": "イオン鎌ヶ谷店地下1Fエスカレーターホール",
      "address": "千葉県鎌ヶ谷市新鎌ヶ谷2-7-1イオン鎌ヶ谷ショッピングセンター2F",
      "lat": 35.779369,
      "lon": 140.001096
    },
    {
      "name": "イオンモール津田沼店B1Fエスカレーターホール",
      "address": "千葉県習志野市津田沼1丁目23番1号イオンモール津田沼1F",
      "lat": 35.690386,
      "lon": 140.024934
    },
    {
      "name": "京成西船駅",
      "address": "千葉県船橋市西船4ー15ー27",
      "lat": 35.71164,
      "lon": 139.95837
    },
    {
      "name": "アイビスibsビル1F",
      "address": "千葉県市川市八幡3-3-3ターミナルシティ本八幡アイビス",
      "lat": 35.723413,
      "lon": 139.927163
    },
    {
      "name": "カメラのキタムラ千葉茂原",
      "address": "千葉県茂原市八千代2-12-5",
      "lat": 35.42325,
      "lon": 140.294175
    },
    {
      "name": "マミーマート船橋日大前",
      "address": "千葉県船橋市坪井町1311-1",
      "lat": 35.736982,
      "lon": 140.060965
    },
    {
      "name": "イオンモール柏",
      "address": "千葉県柏市豊町2ー5ー25イオンモール柏1F",
      "lat": 35.85181,
      "lon": 139.961498
    },
    {
      "name": "ミスターマックス新習志野ショッピングセンター",
      "address": "千葉県習志野市茜浜2-2-1メルクス新習志野1階",
      "lat": 35.665767,
      "lon": 140.013494
    },
    {
      "name": "ファミリーマート酒々井駅前店",
      "address": "千葉県印旛郡酒々井町中川50-3岡田第一ビル1F",
      "lat": 35.735024,
      "lon": 140.271531
    },
    {
      "name": "ファミリーマート南行徳三丁目店",
      "address": "千葉県市川市南行徳3-3-20",
      "lat": 35.669513,
      "lon": 139.902501
    },
    {
      "name": "ららぽーと柏の葉店",
      "address": "千葉県柏市若柴175ららぽーと柏の葉店2F",
      "lat": 35.894034,
      "lon": 139.95112
    },
    {
      "name": "スーパーセンタートライアル八街店",
      "address": "千葉県八街市八街ほ743-1",
      "lat": 35.655594,
      "lon": 140.304718
    },
    {
      "name": "JR千葉駅公園口",
      "address": "千葉県千葉市中央区新千葉1-1",
      "lat": 35.612929,
      "lon": 140.114206
    },
    {
      "name": "京成電鉄実籾駅",
      "address": "千葉県習志野市実籾4-998",
      "lat": 35.688885,
      "lon": 140.073135
    },
    {
      "name": "MONA新浦安店1F",
      "address": "千葉県浦安市入船1-5-1MONA新浦安内",
      "lat": 35.648898,
      "lon": 139.912709
    },
    {
      "name": "京成電鉄八千代台駅",
      "address": "千葉県八千代市八千代台北1-0",
      "lat": 35.70139,
      "lon": 140.0908
    },
    {
      "name": "千葉市稲毛区役所",
      "address": "千葉県千葉市稲毛区穴川4-12-1",
      "lat": 35.636247,
      "lon": 140.107187
    },
    {
      "name": "松戸自動車教習所",
      "address": "千葉県松戸市松戸新田253",
      "lat": 35.791252,
      "lon": 139.9216
    },
    {
      "name": "京成電鉄勝田台駅",
      "address": "千葉県八千代市勝田台1-8-1",
      "lat": 35.715325,
      "lon": 140.126337
    },
    {
      "name": "精文館書店花見川店",
      "address": "千葉県千葉市花見川区作新台6-19-28",
      "lat": 35.690154,
      "lon": 140.085895
    },
    {
      "name": "カメラのキタムラ市原店店舗前",
      "address": "千葉県市原市君塚3-4-13",
      "lat": 35.521208,
      "lon": 140.106827
    },
    {
      "name": "ファミーユ京王",
      "address": "東京都日野市多摩平1丁目1",
      "lat": 35.659754,
      "lon": 139.381089
    },
    {
      "name": "フレスポ八王子みなみ野店",
      "address": "東京都八王子市みなみ野1-7",
      "lat": 35.632009,
      "lon": 139.328425
    },
    {
      "name": "NTT江東支店第2棟",
      "address": "東京都江東区東陽4-7-29",
      "lat": 35.671282,
      "lon": 139.819405
    },
    {
      "name": "明星大学ブックセンター",
      "address": "東京都日野市程久保2-1-1",
      "lat": 35.645035,
      "lon": 139.407356
    },
    {
      "name": "ファミリーマート神楽坂三丁目店",
      "address": "東京都新宿区神楽坂3-2-20",
      "lat": 35.701294,
      "lon": 139.741102
    },
    {
      "name": "多摩都市モノレール大塚帝京大駅",
      "address": "東京都八王子市大塚1473番地",
      "lat": 35.636179,
      "lon": 139.41564
    },
    {
      "name": "ファミリーマート中野中央五丁目店",
      "address": "東京都中野区中央五丁目18-3",
      "lat": 35.697832,
      "lon": 139.662727
    },
    {
      "name": "ライフ水元店",
      "address": "東京都葛飾区水元2-11-5",
      "lat": 35.787259,
      "lon": 139.856886
    },
    {
      "name": "スーパーアルプス豊田南店",
      "address": "東京都日野市豊田1-16-1",
      "lat": 35.657513,
      "lon": 139.388309
    },
    {
      "name": "JR神田駅",
      "address": "東京都千代田区鍛冶町2丁目",
      "lat": 35.692524,
      "lon": 139.771819
    },
    {
      "name": "都営大江戸線中野坂上駅",
      "address": "東京都中野区中央2-2-28",
      "lat": 35.697277,
      "lon": 139.683261
    },
    {
      "name": "早稲田大学理工学部",
      "address": "東京都新宿区大久保3-4-157号館B1",
      "lat": 35.705622,
      "lon": 139.707891
    },
    {
      "name": "スーパーアルプス多摩境店",
      "address": "東京都町田市小山ヶ丘4-5-2",
      "lat": 35.604541,
      "lon": 139.360703
    },
    {
      "name": "ファミリーマート武蔵小山",
      "address": "東京都品川区小山4-4-3",
      "lat": 35.61895,
      "lon": 139.703801
    },
    {
      "name": "都営大江戸線東中野駅",
      "address": "東京都中野区東中野3-8-16",
      "lat": 35.707022,
      "lon": 139.682796
    },
    {
      "name": "早稲田大学本校",
      "address": "東京都新宿区西早稲田1-6-1",
      "lat": 35.709045,
      "lon": 139.719569
    },
    {
      "name": "京成電鉄お花茶屋駅",
      "address": "東京都葛飾区宝町2-37-1",
      "lat": 35.747638,
      "lon": 139.840051
    },
    {
      "name": "コモディイイダ東向島",
      "address": "東京都墨田区東向島1-28-10",
      "lat": 35.719052,
      "lon": 139.813707
    },
    {
      "name": "都営大江戸線青山一丁目駅",
      "address": "東京都港区北青山1-2-4",
      "lat": 35.673201,
      "lon": 139.723819
    },
    {
      "name": "カメラのキタムラ羽村店",
      "address": "東京都羽村市栄町1-12-1",
      "lat": 35.77445,
      "lon": 139.306694
    },
    {
      "name": "京王山田駅",
      "address": "東京都八王子市緑町小芝原434",
      "lat": 35.645565,
      "lon": 139.320834
    },
    {
      "name": "コープみらい葛飾白鳥店",
      "address": "東京都葛飾区白鳥4-10-1",
      "lat": 35.752281,
      "lon": 139.847668
    },
    {
      "name": "西武鉄道中井駅",
      "address": "東京都新宿区中落合1-19-1",
      "lat": 35.715052,
      "lon": 139.687238
    },
    {
      "name": "都営大江戸線森下駅",
      "address": "東京都江東区森下2-17-17",
      "lat": 35.687816,
      "lon": 139.797493
    },
    {
      "name": "村松眞商店",
      "address": "東京都北区西ケ原1-60-16",
      "lat": 35.740159,
      "lon": 139.746069
    },
    {
      "name": "東京学芸大学",
      "address": "東京都小金井市貫井北町4-1-1",
      "lat": 35.70518,
      "lon": 139.49336
    },
    {
      "name": "ライフ本一色店",
      "address": "東京都江戸川区本一色一丁目164番1",
      "lat": 35.716461,
      "lon": 139.870079
    },
    {
      "name": "ベルクス江北店",
      "address": "東京都足立区江北5-16-24",
      "lat": 35.776666,
      "lon": 139.764968
    },
    {
      "name": "ファミリーマート品川埠頭D",
      "address": "東京都港区港南5-5-30",
      "lat": 35.628201,
      "lon": 139.75664
    },
    {
      "name": "ファミリーマート西日暮里四丁目店",
      "address": "東京都荒川区西日暮里4-21-3",
      "lat": 35.731607,
      "lon": 139.764769
    },
    {
      "name": "京王飛田給駅",
      "address": "東京都調布市飛田給1-42-11",
      "lat": 35.660276,
      "lon": 139.523269
    },
    {
      "name": "ファミリーマート中野沼袋二丁目店",
      "address": "東京都中野区沼袋2-38-12",
      "lat": 35.723718,
      "lon": 139.664202
    },
    {
      "name": "ファミリーマート世田谷中町店",
      "address": "東京都世田谷区中町4-19-7",
      "lat": 35.616337,
      "lon": 139.644762
    },
    {
      "name": "西友清瀬店",
      "address": "東京都清瀬市元町1-4-5",
      "lat": 35.773129,
      "lon": 139.520523
    },
    {
      "name": "ファミリーマート品川埠頭C",
      "address": "東京都港区港南5-5-30",
      "lat": 35.628201,
      "lon": 139.75664
    },
    {
      "name": "JR日野駅(1号機)",
      "address": "東京都日野市大坂上",
      "lat": 35.67496,
      "lon": 139.388996
    },
    {
      "name": "新宿区役所",
      "address": "東京都新宿区歌舞伎町1-4-1",
      "lat": 35.693308,
      "lon": 139.701314
    },
    {
      "name": "JR金町駅(2号機)",
      "address": "東京都葛飾区金町6-4-1",
      "lat": 35.768758,
      "lon": 139.868856
    },
    {
      "name": "ファミリーマート鎌田水神橋店",
      "address": "東京都世田谷区鎌田3-34-9",
      "lat": 35.623889,
      "lon": 139.613555
    },
    {
      "name": "都営大江戸線練馬駅",
      "address": "東京都練馬区豊玉北5-17-12",
      "lat": 35.737281,
      "lon": 139.655157
    },
    {
      "name": "ファミリーマート築地五丁目店",
      "address": "東京都中央区築地5-3-1",
      "lat": 35.664671,
      "lon": 139.766012
    },
    {
      "name": "帝京大学ブックセンター",
      "address": "東京都八王子市大塚359",
      "lat": 35.642996,
      "lon": 139.420121
    },
    {
      "name": "東京メトロ東西線落合駅",
      "address": "東京都新宿区上落合2-13-7",
      "lat": 35.711164,
      "lon": 139.687527
    },
    {
      "name": "JR金町駅(1号機)",
      "address": "東京都葛飾区金町6-4-1",
      "lat": 35.768758,
      "lon": 139.868856
    },
    {
      "name": "オリンピック瑞穂店",
      "address": "東京都西多摩郡瑞穂町大字箱根ケ崎1347-1",
      "lat": 35.774646,
      "lon": 139.341998
    },
    {
      "name": "ピーコックストア竹の塚店",
      "address": "東京都足立区竹の塚6-7-1-101",
      "lat": 35.794712,
      "lon": 139.791812
    },
    {
      "name": "ライフ赤塚店",
      "address": "東京都板橋区赤塚1-16-12",
      "lat": 35.770383,
      "lon": 139.649155
    },
    {
      "name": "NTT駒込第2",
      "address": "東京都文京区千駄木3-40-3",
      "lat": 35.726401,
      "lon": 139.763799
    },
    {
      "name": "ピーコックストア大島店",
      "address": "東京都江東区大島6-1-8-101",
      "lat": 35.689865,
      "lon": 139.832653
    },
    {
      "name": "ブックスタマ東大和店",
      "address": "東京都東大和市仲原4-2-4",
      "lat": 35.746242,
      "lon": 139.435519
    },
    {
      "name": "マルエツ名瀬店",
      "address": "神奈川県横浜市戸塚区名瀬町766-3",
      "lat": 35.428484,
      "lon": 139.541237
    },
    {
      "name": "イトーヨーカドーアリオ橋本店",
      "address": "神奈川県相模原市緑区大山町1-22",
      "lat": 35.59102,
      "lon": 139.349769
    },
    {
      "name": "ファミリーマート東戸塚駅東口店",
      "address": "神奈川県横浜市戸塚区品濃町519-8",
      "lat": 35.42851,
      "lon": 139.558374
    },
    {
      "name": "マルエツ天王町店",
      "address": "神奈川県横浜市保土ケ谷区岩間町1-1-5天王町ハイタウン101",
      "lat": 35.453871,
      "lon": 139.604286
    },
    {
      "name": "ファミリーマート横浜公園前店",
      "address": "神奈川県横浜市中区山下町195-1",
      "lat": 35.444159,
      "lon": 139.64239
    },
    {
      "name": "ファミリーマート稲田堤駅前店",
      "address": "神奈川県川崎市多摩区菅稲田堤1-3",
      "lat": 35.634324,
      "lon": 139.535767
    },
    {
      "name": "ハックドラッグ戸塚店",
      "address": "神奈川県横浜市戸塚区下倉田町190-1",
      "lat": 35.386068,
      "lon": 139.536832
    },
    {
      "name": "パレール川崎",
      "address": "神奈川県川崎市川崎区東田町8",
      "lat": 35.529679,
      "lon": 139.704044
    },
    {
      "name": "ファミリーマート小浦青葉すみよし台店",
      "address": "神奈川県横浜市青葉区すみよし台37",
      "lat": 35.553669,
      "lon": 139.493929
    },
    {
      "name": "ファミリーマート東海大学駅前店",
      "address": "神奈川県秦野市南矢名1-13-15",
      "lat": 35.372492,
      "lon": 139.271983
    },
    {
      "name": "東急ストアあざみ野店",
      "address": "神奈川県横浜市青葉区あざみ野2-1-1",
      "lat": 35.568667,
      "lon": 139.553911
    },
    {
      "name": "ファミリーマート都築北山田店",
      "address": "神奈川県横浜市都筑区北山田2-1-1",
      "lat": 35.560892,
      "lon": 139.591703
    },
    {
      "name": "ファミリーマート松山釜利谷店",
      "address": "神奈川県横浜市金沢区釜利谷東2-5-15",
      "lat": 35.343626,
      "lon": 139.616246
    },
    {
      "name": "東急ストアすすき野店",
      "address": "神奈川県横浜市青葉区すすき野2-5-4",
      "lat": 35.575383,
      "lon": 139.524908
    },
    {
      "name": "クロスガーデン川崎",
      "address": "神奈川県川崎市幸区小倉1658-35",
      "lat": 35.54143,
      "lon": 139.669169
    },
    {
      "name": "ハックベリー美しが丘店",
      "address": "神奈川県横浜市青葉区美しが丘西3-65-3",
      "lat": 35.587868,
      "lon": 139.534121
    },
    {
      "name": "イトーヨーカドー古淵(店内)",
      "address": "神奈川県相模原市南区古淵3-13-33",
      "lat": 35.552914,
      "lon": 139.418487
    },
    {
      "name": "ファミリーマート中央林間駅東口店",
      "address": "神奈川県大和市中央林間4-14-20",
      "lat": 35.508025,
      "lon": 139.446152
    },
    {
      "name": "東急田園都市線たまプラーザ駅(2号機)",
      "address": "神奈川県横浜市青葉区美しが丘1-3",
      "lat": 35.577428,
      "lon": 139.55853
    },
    {
      "name": "東急東横線日吉駅",
      "address": "神奈川県横浜市港北区日吉2-1-1",
      "lat": 35.553254,
      "lon": 139.646883
    },
    {
      "name": "ファミリーマート川崎貝塚一丁目",
      "address": "神奈川県川崎市川崎区貝塚1-1-1",
      "lat": 35.52644,
      "lon": 139.702531
    },
    {
      "name": "ヨークマート港北店",
      "address": "神奈川県横浜市都筑区北山田5-17-5",
      "lat": 35.564796,
      "lon": 139.584302
    },
    {
      "name": "ビアレ横浜(イオン金沢シーサイド店)",
      "address": "神奈川県横浜市金沢区並木2-3-11",
      "lat": 35.364595,
      "lon": 139.638347
    },
    {
      "name": "JR久地駅",
      "address": "神奈川県川崎市高津区久地722",
      "lat": 35.610181,
      "lon": 139.605517
    },
    {
      "name": "ヤマダデンキYAMADAweb.com久里浜店",
      "address": "神奈川県横須賀市久里浜7-9-1",
      "lat": 35.226569,
      "lon": 139.710926
    },
    {
      "name": "東急東横線大倉山駅",
      "address": "神奈川県横浜市港北区大倉山1-1-1",
      "lat": 35.521904,
      "lon": 139.629868
    },
    {
      "name": "ココカラファイン逗子",
      "address": "神奈川県逗子市逗子1-8-6",
      "lat": 35.295086,
      "lon": 139.577517
    },
    {
      "name": "JR石川町駅",
      "address": "神奈川県横浜市中区石川町2-72",
      "lat": 35.438175,
      "lon": 139.643545
    },
    {
      "name": "大和市役所",
      "address": "神奈川県大和市下鶴間1-1-1",
      "lat": 35.487532,
      "lon": 139.458007
    },
    {
      "name": "ヨークマート西大竹店",
      "address": "神奈川県秦野市尾尻875",
      "lat": 35.362105,
      "lon": 139.231316
    },
    {
      "name": "ヨークマート大和中央店",
      "address": "神奈川県大和市中央2-6-1",
      "lat": 35.471285,
      "lon": 139.458702
    },
    {
      "name": "横浜市営地下鉄上永谷駅",
      "address": "神奈川県横浜市港南区丸山台1-1-1",
      "lat": 35.401495,
      "lon": 139.572627
    },
    {
      "name": "東急ストア中山店",
      "address": "神奈川県横浜市緑区中山町304-1-7",
      "lat": 35.509851,
      "lon": 139.543361
    },
    {
      "name": "ファミリーマート戸塚不動坂店",
      "address": "神奈川県横浜市戸塚区柏尾町959",
      "lat": 35.415518,
      "lon": 139.544518
    },
    {
      "name": "イトーヨーカドーエスパ川崎店(1号機)",
      "address": "神奈川県川崎市川崎区小田栄2-2-1",
      "lat": 35.51444,
      "lon": 139.708849
    },
    {
      "name": "ウエルシア厚木下荻野店",
      "address": "神奈川県厚木市下荻野437-1",
      "lat": 35.480225,
      "lon": 139.339381
    },
    {
      "name": "マルエツさがみ野店",
      "address": "神奈川県海老名市東柏ケ谷5-14",
      "lat": 35.469964,
      "lon": 139.430125
    },
    {
      "name": "ヨークマート厚木妻田店",
      "address": "神奈川県厚木市妻田北1-7-27",
      "lat": 35.461322,
      "lon": 139.358054
    },
    {
      "name": "マルイファミリー溝口",
      "address": "神奈川県川崎市高津区溝口1-4-1",
      "lat": 35.599045,
      "lon": 139.613116
    },
    {
      "name": "東急百貨店日吉店",
      "address": "神奈川県横浜市港北区日吉2-1-1",
      "lat": 35.553254,
      "lon": 139.646883
    },
    {
      "name": "ファミリーマート相武台前駅南口店",
      "address": "神奈川県座間市相武台3-4742-1",
      "lat": 35.501091,
      "lon": 139.413165
    },
    {
      "name": "神奈中相模大野ビル",
      "address": "神奈川県相模原市南区相模大野3-14-12神奈中相模大野ビル",
      "lat": 35.532802,
      "lon": 139.436473
    },
    {
      "name": "イオンモール座間A",
      "address": "神奈川県座間市広野台2-10-4",
      "lat": 35.5006,
      "lon": 139.425157
    },
    {
      "name": "ハーモス座間店",
      "address": "神奈川県座間市立野台1-19-1",
      "lat": 35.481004,
      "lon": 139.411913
    },
    {
      "name": "マックスバリュ平塚河内店",
      "address": "神奈川県平塚市河内128-1",
      "lat": 35.343497,
      "lon": 139.310607
    },
    {
      "name": "ヨドバシカメラマルチメディア横浜店",
      "address": "神奈川県横浜市西区北幸1-2-7",
      "lat": 35.46768,
      "lon": 139.620381
    },
    {
      "name": "ミスターマックス湘南藤沢ショッピングセンター店",
      "address": "神奈川県藤沢市辻堂新町4-3-5",
      "lat": 35.339973,
      "lon": 139.464715
    },
    {
      "name": "カメラのキタムラ相模原/星が丘店舗前",
      "address": "神奈川県相模原市中央区星が丘2-16-10",
      "lat": 35.561207,
      "lon": 139.373886
    },
    {
      "name": "フジスーパー橋戸店",
      "address": "神奈川県横浜市瀬谷区橋戸2-36-1",
      "lat": 35.460002,
      "lon": 139.479894
    },
    {
      "name": "ファミリーマート市が尾駅前店",
      "address": "神奈川県横浜市青葉区市ヶ尾町1063-10",
      "lat": 35.551731,
      "lon": 139.542441
    }
  ]
}